country,state,city,station,last_update,latitude,longitude,pollutant_id,pollutant_min,pollutant_max,pollutant_avg
India,Bihar,Arrah,"New DM Office, Arrah - BSPCB","18-03-2026 16:00:00",25.5626095,84.663264,OZONE,8,64,20
India,Bihar,Aurangabad,"Gurdeo Nagar, Aurangabad - BSPCB","18-03-2026 16:00:00",24.75746,84.366208,NH3,1,2,2
India,Bihar,Aurangabad,"Gurdeo Nagar, Aurangabad - BSPCB","18-03-2026 16:00:00",24.75746,84.366208,CO,101,103,102
India,Bihar,Begusarai,"Lohiyanagar, Begusarai - BSPCB","18-03-2026 16:00:00",25.42742023,86.13886079,NH3,3,4,4
India,Bihar,Bettiah,"Kamalnath Nagar, Bettiah - BSPCB","18-03-2026 16:00:00",26.80365,84.51954,OZONE,21,40,29
India,Bihar,Bhagalpur,"DM Office_Kachari Chowk, Bhagalpur - BSPCB","18-03-2026 16:00:00",25.251013,86.989001,PM2.5,73,369,268
India,Bihar,Bhagalpur,"DM Office_Kachari Chowk, Bhagalpur - BSPCB","18-03-2026 16:00:00",25.251013,86.989001,SO2,1,41,23
India,Bihar,Bhagalpur,"DM Office_Kachari Chowk, Bhagalpur - BSPCB","18-03-2026 16:00:00",25.251013,86.989001,OZONE,9,27,14
India,Bihar,Bhagalpur,"Mayaganj, Bhagalpur - BSPCB","18-03-2026 16:00:00",25.265194,87.012947,PM2.5,17,72,40
India,Bihar,Bhagalpur,"Mayaganj, Bhagalpur - BSPCB","18-03-2026 16:00:00",25.265194,87.012947,PM10,24,365,171
India,Bihar,Bhagalpur,"Mayaganj, Bhagalpur - BSPCB","18-03-2026 16:00:00",25.265194,87.012947,CO,78,96,87
India,Bihar,Bhagalpur,"Mayaganj, Bhagalpur - BSPCB","18-03-2026 16:00:00",25.265194,87.012947,OZONE,6,14,10
India,Bihar,"Bihar Sharif","D M Colony, Bihar Sharif - BSPCB","18-03-2026 16:00:00",25.204762,85.514960,PM2.5,NA,NA,NA
India,Bihar,Muzaffarpur,"MIT-Daudpur Kothi, Muzaffarpur - BSPCB","18-03-2026 16:00:00",26.1403345,85.3650192,CO,38,63,57
India,Bihar,Muzaffarpur,"Muzaffarpur Collectorate, Muzaffarpur - BSPCB","18-03-2026 16:00:00",26.1209,85.3647,PM2.5,83,123,93
India,Bihar,Muzaffarpur,"Muzaffarpur Collectorate, Muzaffarpur - BSPCB","18-03-2026 16:00:00",26.1209,85.3647,SO2,4,67,10
India,Bihar,Patna,"DRM Office Danapur, Patna - BSPCB","18-03-2026 16:00:00",25.586562,85.043586,PM10,75,376,112
India,Bihar,Patna,"DRM Office Danapur, Patna - BSPCB","18-03-2026 16:00:00",25.586562,85.043586,SO2,4,8,6
India,Bihar,Patna,"Govt. High School Shikarpur, Patna - BSPCB","18-03-2026 16:00:00",25.592539,85.227158,PM10,112,153,134
India,Bihar,Patna,"Govt. High School Shikarpur, Patna - BSPCB","18-03-2026 16:00:00",25.592539,85.227158,NO2,14,17,16
India,Bihar,Patna,"Govt. High School Shikarpur, Patna - BSPCB","18-03-2026 16:00:00",25.592539,85.227158,NH3,4,5,5
India,Bihar,Patna,"Govt. High School Shikarpur, Patna - BSPCB","18-03-2026 16:00:00",25.592539,85.227158,SO2,2,6,4
India,Bihar,Patna,"Muradpur, Patna - BSPCB","18-03-2026 16:00:00",25.619651,85.147382,PM2.5,50,93,72
India,Bihar,Patna,"Muradpur, Patna - BSPCB","18-03-2026 16:00:00",25.619651,85.147382,NH3,4,5,5
India,Bihar,Patna,"Rajbansi Nagar, Patna - BSPCB","18-03-2026 16:00:00",25.599486,85.113666,PM10,67,191,120
India,Bihar,Patna,"Rajbansi Nagar, Patna - BSPCB","18-03-2026 16:00:00",25.599486,85.113666,SO2,1,10,5
India,Andhra_Pradesh,Eluru,"District Court, Eluru - APPCB","18-03-2026 16:00:00",16.711754,81.092095,SO2,12,16,13
India,Andhra_Pradesh,Guntur,"Rajendra Nagar North, Guntur - APPCB","18-03-2026 16:00:00",16.316553,80.413302,PM10,53,72,57
India,Andhra_Pradesh,Guntur,"Rajendra Nagar North, Guntur - APPCB","18-03-2026 16:00:00",16.316553,80.413302,SO2,12,24,15
India,Andhra_Pradesh,Guntur,"Rajendra Nagar North, Guntur - APPCB","18-03-2026 16:00:00",16.316553,80.413302,OZONE,30,45,38
India,Andhra_Pradesh,Kadapa,"Yerramukkapalli, Kadapa - APPCB","18-03-2026 16:00:00",14.465052,78.824187,SO2,11,17,16
India,Andhra_Pradesh,Machilipatnam,"Srinivas Nagar Colony, Machilipatnam - APPCB","18-03-2026 16:00:00",16.186555,81.13219,PM10,49,101,65
India,Andhra_Pradesh,Rajamahendravaram,"Anand Kala Kshetram, Rajamahendravaram - APPCB","18-03-2026 16:00:00",16.9872867,81.7363176,PM2.5,2,40,24
India,Andhra_Pradesh,Rajamahendravaram,"Anand Kala Kshetram, Rajamahendravaram - APPCB","18-03-2026 16:00:00",16.9872867,81.7363176,PM10,8,69,44
India,Andhra_Pradesh,Rajamahendravaram,"Anand Kala Kshetram, Rajamahendravaram - APPCB","18-03-2026 16:00:00",16.9872867,81.7363176,NH3,1,4,3
India,Andhra_Pradesh,Tirumala,"Toll Gate, Tirumala - APPCB","18-03-2026 16:00:00",13.67,79.35,PM10,15,72,40
India,Bihar,Patna,"Samanpura, Patna - BSPCB","18-03-2026 16:00:00",25.596727,85.085624,NO2,33,53,39
India,Bihar,Patna,"Samanpura, Patna - BSPCB","18-03-2026 16:00:00",25.596727,85.085624,NH3,10,16,12
India,Bihar,Patna,"Samanpura, Patna - BSPCB","18-03-2026 16:00:00",25.596727,85.085624,SO2,3,5,4
India,Bihar,Purnia,"Mariam Nagar, Purnia - BSPCB","18-03-2026 16:00:00",25.366336,87.117468,SO2,14,17,16
India,Bihar,Saharsa,"Police Line, Saharsa - BSPCB","18-03-2026 16:00:00",25.892357,86.590325,SO2,14,19,16
India,Bihar,Saharsa,"Police Line, Saharsa - BSPCB","18-03-2026 16:00:00",25.892357,86.590325,OZONE,8,13,10
India,Bihar,Samastipur,"DM Office_Kasipur, Samastipur - BSPCB","18-03-2026 16:00:00",25.859655,85.77944,NO2,8,9,8
India,Bihar,Samastipur,"DM Office_Kasipur, Samastipur - BSPCB","18-03-2026 16:00:00",25.859655,85.77944,CO,2,8,6
India,Bihar,Samastipur,"DM Office_Kasipur, Samastipur - BSPCB","18-03-2026 16:00:00",25.859655,85.77944,OZONE,6,11,8
India,Bihar,Sasaram,"Dada Peer, Sasaram - BSPCB","18-03-2026 16:00:00",24.952822,84.002396,NH3,2,6,3
India,Assam,Byrnihat,"Central Academy for SFS, Byrnihat - PCBA","18-03-2026 16:00:00",26.071318,91.87488,PM2.5,33,324,125
India,Assam,Guwahati,"IITG, Guwahati - PCBA","18-03-2026 16:00:00",26.2028636,91.70046436,PM2.5,28,72,53
India,Assam,Guwahati,"IITG, Guwahati - PCBA","18-03-2026 16:00:00",26.2028636,91.70046436,NH3,5,5,5
India,Assam,Guwahati,"IITG, Guwahati - PCBA","18-03-2026 16:00:00",26.2028636,91.70046436,SO2,31,35,33
India,Assam,Guwahati,"LGBI Airport, Guwahati - PCBA","18-03-2026 16:00:00",26.10887,91.589544,OZONE,12,15,15
India,Assam,Guwahati,"Pan Bazaar, Guwahati - PCBA","18-03-2026 16:00:00",26.187500,91.744194,PM2.5,44,92,64
India,Assam,Guwahati,"Pan Bazaar, Guwahati - PCBA","18-03-2026 16:00:00",26.187500,91.744194,OZONE,9,21,17
India,Bihar,Buxar,"Charitra Van, Buxar - BSPCB","18-03-2026 16:00:00",25.567520,83.966379,PM10,NA,NA,NA
India,Bihar,Chhapra,"Darshan Nagar, Chhapra - BSPCB","18-03-2026 16:00:00",25.7808257,84.7446768,NH3,10,15,11
India,Bihar,Gaya,"Collectorate, Gaya - BSPCB","18-03-2026 16:00:00",24.7955,84.9994,NO2,8,10,9
India,Bihar,Gaya,"Collectorate, Gaya - BSPCB","18-03-2026 16:00:00",24.7955,84.9994,OZONE,18,20,19
India,Bihar,Gaya,"Kareemganj, Gaya - BSPCB","18-03-2026 16:00:00",24.792403,84.992416,PM10,NA,NA,NA
India,Bihar,Gaya,"SFTI Kusdihra, Gaya - BSPCB","18-03-2026 16:00:00",24.762518,84.982348,SO2,7,9,8
India,Andhra_Pradesh,Vijayawada,"HB Colony, Vijayawada - APPCB","18-03-2026 16:00:00",16.536107,80.594233,SO2,13,23,17
India,Andhra_Pradesh,Vijayawada,"HB Colony, Vijayawada - APPCB","18-03-2026 16:00:00",16.536107,80.594233,OZONE,32,55,48
India,Andhra_Pradesh,Vijayawada,"Rajiv Gandhi Park, Vijayawada - APPCB","18-03-2026 16:00:00",16.509717,80.612222,SO2,12,21,15
India,Andhra_Pradesh,Vijayawada,"Rajiv Nagar, Vijayawada - APPCB","18-03-2026 16:00:00",16.554731,80.649110,CO,18,42,34
India,Andhra_Pradesh,Vijayawada,"Rajiv Nagar, Vijayawada - APPCB","18-03-2026 16:00:00",16.554731,80.649110,OZONE,22,37,34
India,Bihar,Kishanganj,"SDM Office_Khagra, Kishanganj - BSPCB","18-03-2026 16:00:00",26.0881305,87.93840336,NO2,8,9,8
India,Bihar,Kishanganj,"SDM Office_Khagra, Kishanganj - BSPCB","18-03-2026 16:00:00",26.0881305,87.93840336,NH3,3,3,3
India,Bihar,Manguraha,"Forest Rest House, Manguraha - BSPCB","18-03-2026 16:00:00",27.308328,84.531742,NO2,NA,NA,NA
India,Bihar,Munger,"Town Hall, Munger - BSPCB","18-03-2026 16:00:00",25.376776,86.471523,NH3,2,3,3
India,Andhra_Pradesh,Amaravati,"Secretariat, Amaravati - APPCB","18-03-2026 16:00:00",16.5150833,80.5181667,OZONE,4,55,36
India,Andhra_Pradesh,Chittoor,"Gangineni Cheruvu, Chittoor - APPCB","18-03-2026 16:00:00",13.204880,79.097889,NH3,6,8,6
India,Andhra_Pradesh,Chittoor,"Gangineni Cheruvu, Chittoor - APPCB","18-03-2026 16:00:00",13.204880,79.097889,CO,24,36,29
India,Assam,Nagaon,"Christianpatty, Nagaon - PCBA","18-03-2026 16:00:00",26.349082,92.68449,PM10,56,108,78
India,Assam,Nagaon,"Christianpatty, Nagaon - PCBA","18-03-2026 16:00:00",26.349082,92.68449,CO,10,24,20
India,Assam,Sivasagar,"Girls College, Sivasagar - PCBA","18-03-2026 16:00:00",26.987634,94.636574,NH3,2,7,4
India,Delhi,Delhi,"Dwarka-Sector 8, Delhi - DPCC ","18-03-2026 16:00:00",28.5710274,77.0719006,PM2.5,78,337,188
India,Delhi,Delhi,"Dwarka-Sector 8, Delhi - DPCC ","18-03-2026 16:00:00",28.5710274,77.0719006,CO,42,97,68
India,Delhi,Delhi,"IGI Airport (T3), Delhi - IMD","18-03-2026 16:00:00",28.5627763,77.1180053,PM2.5,76,317,160
India,Delhi,Delhi,"IGI Airport (T3), Delhi - IMD","18-03-2026 16:00:00",28.5627763,77.1180053,PM10,129,324,188
India,Delhi,Delhi,"IGI Airport (T3), Delhi - IMD","18-03-2026 16:00:00",28.5627763,77.1180053,OZONE,3,170,170
India,Delhi,Delhi,"IGNOU_Maidan Garhi, Delhi - DPCC","18-03-2026 16:00:00","28.493624 ","77.201159 ",OZONE,1,169,169
India,Delhi,Delhi,"IHBAS, Dilshad Garden, Delhi - CPCB","18-03-2026 16:00:00",28.6811736,77.3025234,SO2,7,30,17
India,Delhi,Delhi,"IHBAS, Dilshad Garden, Delhi - CPCB","18-03-2026 16:00:00",28.6811736,77.3025234,CO,46,109,83
India,Delhi,Delhi,"IIT Delhi, Delhi - IITM","18-03-2026 16:00:00",28.542460,77.191651,PM2.5,77,281,152
India,Delhi,Delhi,"IIT Delhi, Delhi - IITM","18-03-2026 16:00:00",28.542460,77.191651,PM10,112,254,173
India,Delhi,Delhi,"IIT Delhi, Delhi - IITM","18-03-2026 16:00:00",28.542460,77.191651,NO2,17,77,49
India,Delhi,Delhi,"IIT Delhi, Delhi - IITM","18-03-2026 16:00:00",28.542460,77.191651,CO,4,78,47
India,Delhi,Delhi,"ITO, Delhi - CPCB","18-03-2026 16:00:00",28.628624,77.241060,NO2,26,88,46
India,Delhi,Delhi,"JNU, Delhi - DPCC","18-03-2026 16:00:00","28.540721 ","77.168544 ",PM10,123,192,157
India,Delhi,Delhi,"Jahangirpuri, Delhi - DPCC","18-03-2026 16:00:00",28.732820,77.170633,NH3,11,15,12
India,Delhi,Delhi,"Jahangirpuri, Delhi - DPCC","18-03-2026 16:00:00",28.732820,77.170633,CO,32,76,40
India,Delhi,Delhi,"Jawaharlal Nehru Stadium, Delhi - DPCC","18-03-2026 16:00:00",28.580280,77.233829,PM10,135,213,169
India,Delhi,Delhi,"Jawaharlal Nehru Stadium, Delhi - DPCC","18-03-2026 16:00:00",28.580280,77.233829,SO2,9,37,22
India,Delhi,Delhi,"Jawaharlal Nehru Stadium, Delhi - DPCC","18-03-2026 16:00:00",28.580280,77.233829,CO,46,96,56
India,Delhi,Delhi,"Major Dhyan Chand National Stadium, Delhi - DPCC","18-03-2026 16:00:00",28.611281,77.237738,PM2.5,45,280,151
India,Delhi,Delhi,"Mandir Marg, Delhi - DPCC","18-03-2026 16:00:00",28.636429,77.201067,PM2.5,197,329,280
India,Delhi,Delhi,"Mandir Marg, Delhi - DPCC","18-03-2026 16:00:00",28.636429,77.201067,SO2,12,52,26
India,Delhi,Delhi,"Mundka, Delhi - DPCC","18-03-2026 16:00:00",28.684678,77.076574,PM2.5,78,408,258
India,Chhattisgarh,Milupara,"Govt. Higher Secondary School, Milupara - CECB","18-03-2026 16:00:00",22.1910172,83.5197009,NO2,NA,NA,NA
India,Chhattisgarh,Raipur,"AIIMS, Raipur - CECB","18-03-2026 16:00:00",21.258815,81.578979,NO2,24,45,39
India,Chhattisgarh,Raipur,"Bhatagaon New ISBT, Raipur - CECB","18-03-2026 16:00:00",21.219665,81.630094,PM10,25,59,34
India,Chhattisgarh,Raipur,"Bhatagaon New ISBT, Raipur - CECB","18-03-2026 16:00:00",21.219665,81.630094,SO2,4,27,7
India,Chhattisgarh,Raipur,"Bhatagaon New ISBT, Raipur - CECB","18-03-2026 16:00:00",21.219665,81.630094,CO,20,60,25
India,Chhattisgarh,Raipur,"Krishak Nagar, Raipur - CECB","18-03-2026 16:00:00",21.237755,81.705301,NH3,2,2,2
India,Chhattisgarh,Raipur,"Siltara Phase-II, Raipur - CECB","18-03-2026 16:00:00",21.371751,81.664929,PM2.5,16,93,33
India,Chhattisgarh,Raipur,"Siltara Phase-II, Raipur - CECB","18-03-2026 16:00:00",21.371751,81.664929,NO2,NA,NA,NA
India,Chhattisgarh,Tumidih,"OP Jindal Industrial Park, Tumidih - CECB","18-03-2026 16:00:00",22.06631475,83.33820077,OZONE,52,61,57
India,Delhi,Delhi,"Anand Vihar, Delhi - DPCC","18-03-2026 16:00:00",28.647622,77.3158090,NO2,62,433,176
India,Delhi,Delhi,"Ashok Vihar, Delhi - DPCC","18-03-2026 16:00:00",28.695381,77.181665,NO2,22,91,53
India,Delhi,Delhi,"Ashok Vihar, Delhi - DPCC","18-03-2026 16:00:00",28.695381,77.181665,SO2,13,44,26
India,Delhi,Delhi,"Aya Nagar, Delhi - IMD","18-03-2026 16:00:00",28.4706914,77.1099364,CO,14,50,33
India,Delhi,Delhi,"Bawana, Delhi - DPCC","18-03-2026 16:00:00",28.776200,77.051074,PM2.5,75,346,225
India,Delhi,Delhi,"Bawana, Delhi - DPCC","18-03-2026 16:00:00",28.776200,77.051074,PM10,135,281,186
India,Delhi,Delhi,"Burari Crossing, Delhi - IMD","18-03-2026 16:00:00",28.7256504,77.2011573,CO,42,66,49
India,Delhi,Delhi,"CRRI Mathura Road, Delhi - IMD","18-03-2026 16:00:00",28.5512005,77.2735737,CO,21,64,43
India,Delhi,Delhi,"Chandni Chowk, Delhi - IITM","18-03-2026 16:00:00",28.656756,77.227234,NH3,7,12,10
India,Delhi,Delhi,"Chandni Chowk, Delhi - IITM","18-03-2026 16:00:00",28.656756,77.227234,SO2,11,26,16
India,Delhi,Delhi,"Commonwealth Sports Complex, Delhi - DPCC","18-03-2026 16:00:00","28.615828 ","77.271992 ",CO,88,109,102
India,Delhi,Delhi,"DTU, Delhi - CPCB","18-03-2026 16:00:00",28.7500499,77.1112615,PM2.5,54,314,173
India,Delhi,Delhi,"DTU, Delhi - CPCB","18-03-2026 16:00:00",28.7500499,77.1112615,CO,14,34,30
India,Delhi,Delhi,"Mundka, Delhi - DPCC","18-03-2026 16:00:00",28.684678,77.076574,SO2,28,50,33
India,Delhi,Delhi,"NSIT Dwarka, Delhi - CPCB","18-03-2026 16:00:00",28.60909,77.0325413,PM2.5,51,419,143
India,Delhi,Delhi,"NSIT Dwarka, Delhi - CPCB","18-03-2026 16:00:00",28.60909,77.0325413,NO2,100,170,124
India,Delhi,Delhi,"NSIT Dwarka, Delhi - CPCB","18-03-2026 16:00:00",28.60909,77.0325413,OZONE,13,66,41
India,Delhi,Delhi,"Najafgarh, Delhi - DPCC","18-03-2026 16:00:00",28.570173,76.933762,PM2.5,55,362,221
India,Delhi,Delhi,"Najafgarh, Delhi - DPCC","18-03-2026 16:00:00",28.570173,76.933762,SO2,20,59,30
India,Delhi,Delhi,"Narela, Delhi - DPCC","18-03-2026 16:00:00",28.822836,77.101981,PM10,114,304,190
India,Chhattisgarh,Bhilai,"Civic Center, Bhilai - Bhilai Steel Plant","18-03-2026 16:00:00",21.185571,81.343175,OZONE,8,11,10
India,Chhattisgarh,Bhilai,"Hathkhoj, Bhilai - CECB","18-03-2026 16:00:00",21.224231,81.408350,PM2.5,18,37,24
India,Chhattisgarh,Bilaspur,"Mangala, Bilaspur - NTPC","18-03-2026 16:00:00",22.08815,82.13737,CO,12,114,27
India,Chhattisgarh,Chhal,"Nawapara SECL Colony, Chhal - CECB","18-03-2026 16:00:00",22.118125,83.140608,CO,20,48,28
India,Chhattisgarh,Korba,"Rampur, Korba - CECB","18-03-2026 16:00:00",22.368195,82.746431,OZONE,12,15,12
India,Bihar,Sasaram,"Dada Peer, Sasaram - BSPCB","18-03-2026 16:00:00",24.952822,84.002396,CO,41,85,57
India,Bihar,Siwan,"Chitragupta Nagar, Siwan - BSPCB","18-03-2026 16:00:00",26.2271665,84.3570427,CO,49,106,71
India,Chandigarh,Chandigarh,"Sector-53, Chandigarh - CPCC","18-03-2026 16:00:00",30.719859,76.738637,CO,20,116,42
India,Chhattisgarh,Bhilai,"32Bungalows, Bhilai - CECB","18-03-2026 16:00:00",21.194815,81.314770,OZONE,6,22,14
India,Chhattisgarh,Kunjemura,"OP Jindal School, Kunjemura - CECB","18-03-2026 16:00:00",22.126650,83.483212,PM10,20,159,65
India,Gujarat,Rajkot,"Mavdi, Rajkot - Nexteng Enviro ","18-03-2026 16:00:00",22.248853,70.776774,SO2,1,23,5
India,Gujarat,Rajkot,"Mavdi, Rajkot - Nexteng Enviro ","18-03-2026 16:00:00",22.248853,70.776774,OZONE,6,16,11
India,Gujarat,Surat,"Katargam, Surat - Nexteng Enviro","18-03-2026 16:00:00","21.217779 ","72.834787 ",PM2.5,10,84,41
India,Gujarat,Surat,"Katargam, Surat - Nexteng Enviro","18-03-2026 16:00:00","21.217779 ","72.834787 ",PM10,27,117,70
India,Gujarat,Surat,"Katargam, Surat - Nexteng Enviro","18-03-2026 16:00:00","21.217779 ","72.834787 ",NO2,5,34,17
India,Gujarat,Surat,"Katargam, Surat - Nexteng Enviro","18-03-2026 16:00:00","21.217779 ","72.834787 ",OZONE,9,9,9
India,Gujarat,Surat,"Science Center, Surat - SMC","18-03-2026 16:00:00",21.170046,72.795405,PM10,57,146,99
India,Gujarat,Surat,"Science Center, Surat - SMC","18-03-2026 16:00:00",21.170046,72.795405,SO2,28,42,31
India,Gujarat,Vadodara,"Bapunagar, Vadodara - Nexteng Enviro","18-03-2026 16:00:00",22.320153,73.216285,PM2.5,37,221,104
India,Gujarat,Vadodara,"Bapunagar, Vadodara - Nexteng Enviro","18-03-2026 16:00:00",22.320153,73.216285,NO2,3,90,20
India,Gujarat,Vapi,"Phase-1 GIDC, Vapi - GPCB","18-03-2026 16:00:00",20.362421,72.918013,PM10,55,93,70
India,Gujarat,Vatva,"Phase-4 GIDC, Vatva - GPCB","18-03-2026 16:00:00",22.969611,72.643500,PM2.5,93,261,139
India,Gujarat,Vatva,"Phase-4 GIDC, Vatva - GPCB","18-03-2026 16:00:00",22.969611,72.643500,OZONE,32,47,43
India,Haryana,Bahadurgarh,"Arya Nagar, Bahadurgarh - HSPCB","18-03-2026 16:00:00",28.6701,76.9254,NH3,12,13,13
India,Haryana,Bahadurgarh,"Arya Nagar, Bahadurgarh - HSPCB","18-03-2026 16:00:00",28.6701,76.9254,CO,46,52,48
India,Haryana,Ballabgarh,"Nathu Colony, Ballabgarh - HSPCB","18-03-2026 16:00:00",28.3419248,77.319699,NO2,19,21,20
India,Haryana,Ballabgarh,"Nathu Colony, Ballabgarh - HSPCB","18-03-2026 16:00:00",28.3419248,77.319699,NH3,3,3,3
India,Haryana,Ballabgarh,"Nathu Colony, Ballabgarh - HSPCB","18-03-2026 16:00:00",28.3419248,77.319699,CO,29,57,41
India,Haryana,Bhiwani,"H.B. Colony, Bhiwani - HSPCB","18-03-2026 16:00:00",28.806223,76.141105,PM10,34,131,64
India,Haryana,"Charkhi Dadri","Mini Secretariat, Charkhi Dadri - HSPCB","18-03-2026 16:00:00",28.593883,76.270653,PM2.5,2,195,95
India,Haryana,"Charkhi Dadri","Mini Secretariat, Charkhi Dadri - HSPCB","18-03-2026 16:00:00",28.593883,76.270653,PM10,2,132,90
India,Haryana,"Charkhi Dadri","Mini Secretariat, Charkhi Dadri - HSPCB","18-03-2026 16:00:00",28.593883,76.270653,NO2,9,23,15
India,Haryana,"Charkhi Dadri","Mini Secretariat, Charkhi Dadri - HSPCB","18-03-2026 16:00:00",28.593883,76.270653,NH3,5,8,6
India,Haryana,Faridabad,"New Industrial Town, Faridabad - HSPCB","18-03-2026 16:00:00",28.39072,77.30059,PM2.5,185,209,195
India,Gujarat,Ahmedabad,"Raikhad, Ahmedabad - IITM","18-03-2026 16:00:00",23.020509,72.579261,NO2,16,96,51
India,Gujarat,Ahmedabad,"Raikhad, Ahmedabad - IITM","18-03-2026 16:00:00",23.020509,72.579261,NH3,13,26,19
India,Gujarat,Ahmedabad,"Raikhad, Ahmedabad - IITM","18-03-2026 16:00:00",23.020509,72.579261,SO2,20,133,60
India,Gujarat,Ahmedabad,"SAC ISRO Bopal, Ahmedabad - IITM","18-03-2026 16:00:00",23.041137,72.456691,CO,16,44,21
India,Gujarat,Ahmedabad,"SAC ISRO Satellite, Ahmedabad - IITM","18-03-2026 16:00:00",23.023389,72.515201,PM2.5,70,159,107
India,Gujarat,Ahmedabad,"SAC ISRO Satellite, Ahmedabad - IITM","18-03-2026 16:00:00",23.023389,72.515201,SO2,10,66,22
India,Gujarat,Ankleshwar,"GIDC, Ankleshwar - GPCB","18-03-2026 16:00:00",21.613267,73.010555,NO2,22,23,23
India,Gujarat,Ankleshwar,"GIDC, Ankleshwar - GPCB","18-03-2026 16:00:00",21.613267,73.010555,OZONE,8,42,26
India,Gujarat,Bhavnagar,"Vidhyanagar, Bhavnagar - Nexteng Enviro","18-03-2026 16:00:00",21.755417,72.139056,PM10,82,144,103
India,Gujarat,Bhavnagar,"Vidhyanagar, Bhavnagar - Nexteng Enviro","18-03-2026 16:00:00",21.755417,72.139056,NO2,24,50,44
India,Gujarat,Gandhinagar,"GIFT City, Gandhinagar - IITM","18-03-2026 16:00:00",23.163798,72.677768,NO2,17,68,35
India,Gujarat,Gandhinagar,"IIPHG Lekawada, Gandhinagar - IITM","18-03-2026 16:00:00",23.243639,72.68994,NH3,5,9,6
India,Gujarat,Gandhinagar,"Sector-10, Gandhinagar - GPCB","18-03-2026 16:00:00",23.221714,72.654328,NO2,22,40,30
India,Gujarat,Gandhinagar,"Sector-10, Gandhinagar - GPCB","18-03-2026 16:00:00",23.221714,72.654328,CO,30,48,42
India,Gujarat,Mehsana,"Sadanand Nagar, Mehsana - Nexteng Enviro","18-03-2026 16:00:00",23.593150,72.372792,PM10,20,112,79
India,Gujarat,Mehsana,"Sadanand Nagar, Mehsana - Nexteng Enviro","18-03-2026 16:00:00",23.593150,72.372792,NO2,44,59,51
India,Gujarat,Mehsana,"Sadanand Nagar, Mehsana - Nexteng Enviro","18-03-2026 16:00:00",23.593150,72.372792,NH3,3,8,5
India,Gujarat,Rajkot,"Mavdi, Rajkot - Nexteng Enviro ","18-03-2026 16:00:00",22.248853,70.776774,PM10,50,156,102
India,Delhi,Delhi,"North Campus, DU, Delhi - IMD","18-03-2026 16:00:00",28.6573814,77.1585447,PM2.5,35,332,186
India,Delhi,Delhi,"Okhla Phase-2, Delhi - DPCC","18-03-2026 16:00:00",28.530785,77.271255,OZONE,4,197,169
India,Delhi,Delhi,"Patparganj, Delhi - DPCC","18-03-2026 16:00:00",28.623763,77.287209,PM10,165,342,200
India,Delhi,Delhi,"Patparganj, Delhi - DPCC","18-03-2026 16:00:00",28.623763,77.287209,SO2,11,43,25
India,Delhi,Delhi,"Punjabi Bagh, Delhi - DPCC","18-03-2026 16:00:00",28.674045,77.131023,PM2.5,20,318,216
India,Delhi,Delhi,"Pusa, Delhi - DPCC","18-03-2026 16:00:00",28.639652,77.146275,PM10,134,273,190
India,Delhi,Delhi,"Pusa, Delhi - IMD","18-03-2026 16:00:00",28.636110,77.173332,OZONE,47,357,354
India,Delhi,Delhi,"R K Puram, Delhi - DPCC","18-03-2026 16:00:00",28.563262,77.186937,SO2,3,32,14
India,Delhi,Delhi,"Shadipur, Delhi - CPCB","18-03-2026 16:00:00",28.6514781,77.1473105,NH3,10,14,12
India,Delhi,Delhi,"Shadipur, Delhi - CPCB","18-03-2026 16:00:00",28.6514781,77.1473105,SO2,11,18,15
India,Delhi,Delhi,"Sirifort, Delhi - CPCB","18-03-2026 16:00:00",28.5504249,77.2159377,NH3,9,16,12
India,Delhi,Delhi,"Sonia Vihar, Delhi - DPCC","18-03-2026 16:00:00",28.710508,77.249485,PM2.5,77,319,238
India,Delhi,Delhi,"Talkatora Garden, Delhi - DPCC","18-03-2026 16:00:00",28.621810,77.1944633,PM2.5,82,306,179
India,Delhi,Delhi,"Talkatora Garden, Delhi - DPCC","18-03-2026 16:00:00",28.621810,77.1944633,NO2,13,26,20
India,Delhi,Delhi,"Talkatora Garden, Delhi - DPCC","18-03-2026 16:00:00",28.621810,77.1944633,CO,103,107,106
India,Delhi,Delhi,"Vivek Vihar, Delhi - DPCC","18-03-2026 16:00:00",28.672342,77.315260,NO2,29,76,53
India,Delhi,Delhi,"Wazirpur, Delhi - DPCC","18-03-2026 16:00:00",28.699793,77.165453,SO2,16,42,25
India,Delhi,Delhi,"Wazirpur, Delhi - DPCC","18-03-2026 16:00:00",28.699793,77.165453,CO,40,72,54
India,Gujarat,Ahmedabad,"Gyaspur, Ahmedabad - IITM","18-03-2026 16:00:00",22.977134,72.553024,SO2,8,96,38
India,Gujarat,Ahmedabad,"Maninagar, Ahmedabad - GPCB","18-03-2026 16:00:00",23.002657,72.591912,PM10,67,133,109
India,Haryana,Hisar,"Urban Estate-II, Hisar - HSPCB","18-03-2026 16:00:00",29.140560,75.744941,NH3,10,11,11
India,Haryana,Hisar,"Urban Estate-II, Hisar - HSPCB","18-03-2026 16:00:00",29.140560,75.744941,SO2,7,15,11
India,Haryana,Jind,"Police Lines, Jind - HSPCB","18-03-2026 16:00:00",29.307814,76.337619,PM10,53,102,76
India,Haryana,Jind,"Police Lines, Jind - HSPCB","18-03-2026 16:00:00",29.307814,76.337619,NH3,4,6,5
India,Haryana,Jind,"Police Lines, Jind - HSPCB","18-03-2026 16:00:00",29.307814,76.337619,CO,1,42,6
India,Haryana,Karnal,"Sector-12, Karnal - HSPCB","18-03-2026 16:00:00",29.695300,77.002700,OZONE,11,55,41
India,Haryana,Faridabad,"Sector 30, Faridabad - HSPCB","18-03-2026 16:00:00",28.4417,77.3217,CO,33,64,62
India,Haryana,Fatehabad,"Huda Sector, Fatehabad - HSPCB","18-03-2026 16:00:00",29.503664,75.467934,SO2,10,11,11
India,Haryana,Gurugram,"NISE Gwal Pahari, Gurugram - IMD","18-03-2026 16:00:00",28.422681,77.148944,PM10,135,292,186
India,Haryana,Gurugram,"NISE Gwal Pahari, Gurugram - IMD","18-03-2026 16:00:00",28.422681,77.148944,NO2,7,50,29
India,Haryana,Gurugram,"NISE Gwal Pahari, Gurugram - IMD","18-03-2026 16:00:00",28.422681,77.148944,CO,29,65,46
India,Haryana,Rohtak,"MD University, Rohtak - HSPCB","18-03-2026 16:00:00",28.52123,76.37138,NO2,10,13,12
India,Haryana,Sirsa,"F-Block, Sirsa - HSPCB","18-03-2026 16:00:00",29.536400,75.015800,PM2.5,41,301,94
India,Haryana,Sonipat,"Murthal, Sonipat - HSPCB","18-03-2026 16:00:00",29.027200,77.062100,PM10,53,113,85
India,Haryana,"Yamuna Nagar","Gobind Pura, Yamuna Nagar - HSPCB","18-03-2026 16:00:00",30.1480566,77.2893471,PM2.5,8,183,119
India,Haryana,"Yamuna Nagar","Gobind Pura, Yamuna Nagar - HSPCB","18-03-2026 16:00:00",30.1480566,77.2893471,NH3,1,6,3
India,Haryana,"Yamuna Nagar","Gobind Pura, Yamuna Nagar - HSPCB","18-03-2026 16:00:00",30.1480566,77.2893471,CO,26,109,58
India,"Himachal Pradesh",Baddi,"HIMUDA Complex Phase-1, Baddi - HPPCB","18-03-2026 16:00:00",30.943887,76.801991,NO2,6,51,24
India,"Himachal Pradesh",Baddi,"HIMUDA Complex Phase-1, Baddi - HPPCB","18-03-2026 16:00:00",30.943887,76.801991,SO2,20,128,50
India,Jammu_and_Kashmir,Srinagar,"Rajbagh, Srinagar - JKPCC","18-03-2026 16:00:00",34.066206,74.819820,PM2.5,13,24,17
India,Jammu_and_Kashmir,Srinagar,"Rajbagh, Srinagar - JKPCC","18-03-2026 16:00:00",34.066206,74.819820,PM10,21,38,27
India,Jammu_and_Kashmir,Srinagar,"Rajbagh, Srinagar - JKPCC","18-03-2026 16:00:00",34.066206,74.819820,SO2,3,4,3
India,Karnataka,Bengaluru,"Silk Board, Bengaluru - KSPCB","18-03-2026 16:00:00",12.917348,77.622813,NH3,3,6,4
India,Karnataka,Bengaluru,"Silk Board, Bengaluru - KSPCB","18-03-2026 16:00:00",12.917348,77.622813,OZONE,3,51,31
India,Karnataka,Chamarajanagar,"Urban, Chamarajanagar - KSPCB","18-03-2026 16:00:00",11.55358,76.55521,NO2,14,31,22
India,Karnataka,Chamarajanagar,"Urban, Chamarajanagar - KSPCB","18-03-2026 16:00:00",11.55358,76.55521,NH3,1,3,2
India,Karnataka,Chamarajanagar,"Urban, Chamarajanagar - KSPCB","18-03-2026 16:00:00",11.55358,76.55521,CO,12,24,21
India,Karnataka,Chamarajanagar,"Urban, Chamarajanagar - KSPCB","18-03-2026 16:00:00",11.55358,76.55521,OZONE,10,29,17
India,Karnataka,Dharwad,"Kalabhavan, Dharwad - KSPCB","18-03-2026 16:00:00",15.459706,75.008381,PM2.5,42,63,47
India,Karnataka,Dharwad,"Kalabhavan, Dharwad - KSPCB","18-03-2026 16:00:00",15.459706,75.008381,NH3,4,4,4
India,Karnataka,Hubballi,"Lingaraj Nagar, Hubballi - KSPCB","18-03-2026 16:00:00",15.3714823,75.1160168,NO2,11,11,11
India,Karnataka,Hubballi,"Lingaraj Nagar, Hubballi - KSPCB","18-03-2026 16:00:00",15.3714823,75.1160168,OZONE,26,27,26
India,Haryana,Kurukshetra,"Sector-7, Kurukshetra - HSPCB","18-03-2026 16:00:00",29.966942,76.875879,CO,18,35,25
India,Haryana,Mandikhera,"General Hospital, Mandikhera(Nuh) - HSPCB","18-03-2026 16:00:00",27.9002,76.9938,PM2.5,36,86,54
India,Haryana,Mandikhera,"General Hospital, Mandikhera(Nuh) - HSPCB","18-03-2026 16:00:00",27.9002,76.9938,NO2,20,23,22
India,Haryana,Mandikhera,"General Hospital, Mandikhera(Nuh) - HSPCB","18-03-2026 16:00:00",27.9002,76.9938,CO,63,91,75
India,Haryana,Manesar,"Sector-2 IMT, Manesar - HSPCB","18-03-2026 16:00:00",28.360699,76.936090,PM2.5,98,323,190
India,Haryana,Manesar,"Sector-2 IMT, Manesar - HSPCB","18-03-2026 16:00:00",28.360699,76.936090,NH3,8,11,9
India,Haryana,Manesar,"Sector-2 IMT, Manesar - HSPCB","18-03-2026 16:00:00",28.360699,76.936090,CO,4,33,18
India,Haryana,Narnaul,"Shastri Nagar, Narnaul - HSPCB","18-03-2026 16:00:00",28.060249,76.113115,SO2,6,7,7
India,Haryana,Narnaul,"Shastri Nagar, Narnaul - HSPCB","18-03-2026 16:00:00",28.060249,76.113115,OZONE,5,30,19
India,Karnataka,Bengaluru,"Hombegowda Nagar, Bengaluru - KSPCB","18-03-2026 16:00:00",12.938539,77.590100,PM2.5,81,155,115
India,Karnataka,Bengaluru,"Hombegowda Nagar, Bengaluru - KSPCB","18-03-2026 16:00:00",12.938539,77.590100,PM10,74,134,100
India,Karnataka,Bengaluru,"Jayanagar 5th Block, Bengaluru - KSPCB","18-03-2026 16:00:00",12.920984,77.584908,SO2,4,15,10
India,Karnataka,Bengaluru,"RVCE-Mailasandra, Bengaluru - KSPCB","18-03-2026 16:00:00",12.921418,77.502466,NH3,3,4,4
India,Karnataka,Bengaluru,"Sanegurava Halli, Bengaluru - KSPCB","18-03-2026 16:00:00",12.990328,77.5431385,SO2,5,7,6
India,Karnataka,Bengaluru,"Sanegurava Halli, Bengaluru - KSPCB","18-03-2026 16:00:00",12.990328,77.5431385,CO,8,74,26
India,Karnataka,Bengaluru,"Silk Board, Bengaluru - KSPCB","18-03-2026 16:00:00",12.917348,77.622813,PM10,71,234,124
India,Haryana,Palwal,"Shyam Nagar, Palwal - HSPCB","18-03-2026 16:00:00",28.1485564,77.3320667,OZONE,8,14,8
India,Haryana,Panchgaon,"Amity University, Panchgaon - IITM","18-03-2026 16:00:00",28.3153,76.9143,NO2,17,52,27
India,Haryana,Panchgaon,"Amity University, Panchgaon - IITM","18-03-2026 16:00:00",28.3153,76.9143,CO,30,60,40
India,Haryana,Panchkula,"Sector-6, Panchkula - HSPCB ","18-03-2026 16:00:00",30.7057778,76.8531805555555,NO2,22,25,24
India,Haryana,Panchkula,"Sector-6, Panchkula - HSPCB ","18-03-2026 16:00:00",30.7057778,76.8531805555555,OZONE,2,5,3
India,Haryana,Panipat,"Sector-18, Panipat - HSPCB","18-03-2026 16:00:00",29.432304,76.972765,NO2,31,32,31
India,Haryana,Panipat,"Sector-18, Panipat - HSPCB","18-03-2026 16:00:00",29.432304,76.972765,SO2,11,11,11
India,Karnataka,Vijayapura,"Ibrahimpur, Vijayapura - KSPCB","18-03-2026 16:00:00",16.802639,75.722694,OZONE,11,17,16
India,Karnataka,Yadgir,"Collector Office, Yadgir - KSPCB","18-03-2026 16:00:00",16.7602,77.1428,NH3,NA,NA,NA
India,Karnataka,Yadgir,"Collector Office, Yadgir - KSPCB","18-03-2026 16:00:00",16.7602,77.1428,OZONE,11,28,19
India,Kerala,Eloor,"Udyogamandal, Eloor - Kerala PCB","18-03-2026 16:00:00",10.073232,76.302765,OZONE,13,15,14
India,Kerala,Kannur,"Thavakkara, Kannur - Kerala PCB","18-03-2026 16:00:00",11.875000,75.373200,OZONE,27,32,30
India,Kerala,Kollam,"Polayathode, Kollam - Kerala PCB","18-03-2026 16:00:00",8.8787,76.6073,PM2.5,40,51,46
India,Karnataka,Kalaburagi,"Mahatma Basaveswar Colony, Kalaburgi - KSPCB","18-03-2026 16:00:00",17.336318,76.847397,CO,37,57,46
India,Karnataka,Madikeri,"Stuart Hill, Madikeri - KSPCB","18-03-2026 16:00:00",12.415911,75.735050,SO2,7,7,7
India,Karnataka,Ramanagara,"Vijay Nagar, Ramanagara - KSPCB","18-03-2026 16:00:00",12.733409,77.298051,PM2.5,48,95,72
India,Karnataka,Ramanagara,"Vijay Nagar, Ramanagara - KSPCB","18-03-2026 16:00:00",12.733409,77.298051,NO2,11,59,29
India,Karnataka,Shivamogga,"Vinoba Nagara, Shivamogga - KSPCB","18-03-2026 16:00:00",13.940000,75.555917,PM10,50,74,60
India,Karnataka,Shivamogga,"Vinoba Nagara, Shivamogga - KSPCB","18-03-2026 16:00:00",13.940000,75.555917,CO,8,26,21
India,Kerala,Thiruvananthapuram,"Kariavattom, Thiruvananthapuram - Kerala PCB","18-03-2026 16:00:00",8.563700,76.886500,PM2.5,27,105,53
India,Kerala,Thiruvananthapuram,"Plammoodu, Thiruvananthapuram - Kerala PCB","18-03-2026 16:00:00",8.5149093,76.9435879,CO,7,32,22
India,Kerala,Thrissur,"Corporation Ground, Thrissur - Kerala PCB","18-03-2026 16:00:00",10.532400,76.215900,SO2,1,1,1
India,"Madhya Pradesh",Bhopal,"Idgah Hills, Bhopal - MPPCB","18-03-2026 16:00:00",23.264759,77.381568,NH3,4,6,5
India,Jharkhand,Dhanbad,"Sardar Patel Nagar, Dhanbad - JSPCB","18-03-2026 16:00:00",23.80569,86.44268,NO2,81,82,82
India,Jharkhand,Dhanbad,"Sardar Patel Nagar, Dhanbad - JSPCB","18-03-2026 16:00:00",23.80569,86.44268,SO2,27,29,28
India,Karnataka,Bengaluru,"Bapuji Nagar, Bengaluru - KSPCB","18-03-2026 16:00:00",12.951913,77.539784,NO2,14,22,16
India,"Madhya Pradesh",Indore,"Regional Park, Indore - IMC","18-03-2026 16:00:00",22.6780,75.8559,SO2,17,19,18
India,"Madhya Pradesh",Indore,"Regional Park, Indore - IMC","18-03-2026 16:00:00",22.6780,75.8559,CO,8,27,16
India,"Madhya Pradesh",Indore,"Residency Area, Indore - IMC","18-03-2026 16:00:00",22.7084,75.8815,NO2,24,45,37
India,"Madhya Pradesh",Jabalpur,"Govindh Bhavan Colony, Jabalpur - JMC","18-03-2026 16:00:00",23.163174,79.973061,NH3,2,2,2
India,"Madhya Pradesh",Jabalpur,"Govindh Bhavan Colony, Jabalpur - JMC","18-03-2026 16:00:00",23.163174,79.973061,SO2,3,9,7
India,"Madhya Pradesh",Jabalpur,"Govindh Bhavan Colony, Jabalpur - JMC","18-03-2026 16:00:00",23.163174,79.973061,OZONE,3,57,19
India,"Madhya Pradesh",Jabalpur,"Gupteshwar, Jabalpur - JMC","18-03-2026 16:00:00",23.142888,79.916147,PM2.5,28,70,50
India,"Madhya Pradesh",Jabalpur,"Gupteshwar, Jabalpur - JMC","18-03-2026 16:00:00",23.142888,79.916147,SO2,7,19,12
India,"Madhya Pradesh",Jabalpur,"Gupteshwar, Jabalpur - JMC","18-03-2026 16:00:00",23.142888,79.916147,OZONE,17,109,94
India,"Madhya Pradesh",Jabalpur,"Marhatal, Jabalpur - MPPCB","18-03-2026 16:00:00",23.168606,79.932247,SO2,15,23,19
India,"Madhya Pradesh",Jabalpur,"Suhagi, Jabalpur - JMC","18-03-2026 16:00:00",23.218135,79.957770,NO2,11,41,21
India,"Madhya Pradesh",Ratlam,"Shasthri Nagar, Ratlam - IPCA Lab","18-03-2026 16:00:00",23.331731,75.045981,SO2,41,55,45
India,"Madhya Pradesh",Sagar,"Civil Lines, Sagar - MPPCB","18-03-2026 16:00:00",23.838586,78.759431,CO,14,70,24
India,"Madhya Pradesh",Sagar,"Civil Lines, Sagar - MPPCB","18-03-2026 16:00:00",23.838586,78.759431,OZONE,45,129,102
India,"Madhya Pradesh",Sagar,"Deen Dayal Nagar, Sagar - MPPCB","18-03-2026 16:00:00",23.8640158,78.80289321,PM10,63,173,104
India,"Madhya Pradesh",Satna,"Bandhavgar Colony, Satna - Birla Cement","18-03-2026 16:00:00",24.58434363,80.8549414,PM10,69,71,70
India,"Madhya Pradesh",Singrauli,"Suryakiran Bhawan NCL, Singrauli - MPPCB","18-03-2026 16:00:00",24.108970,82.645580,NH3,4,5,4
India,"Madhya Pradesh",Singrauli,"Suryakiran Bhawan NCL, Singrauli - MPPCB","18-03-2026 16:00:00",24.108970,82.645580,CO,22,109,36
India,"Madhya Pradesh",Ujjain,"Mahashweta Nagar, Ujjain - MPPCB","18-03-2026 16:00:00",23.1633321,75.800225,PM2.5,NA,NA,NA
India,"Madhya Pradesh",Ujjain,"Mahashweta Nagar, Ujjain - MPPCB","18-03-2026 16:00:00",23.1633321,75.800225,CO,16,22,19
India,"Madhya Pradesh",Gwalior,"Deen Dayal Nagar, Gwalior - MPPCB","18-03-2026 16:00:00",26.259242,78.216432,NO2,10,17,14
India,"Madhya Pradesh",Gwalior,"Deen Dayal Nagar, Gwalior - MPPCB","18-03-2026 16:00:00",26.259242,78.216432,NH3,2,6,4
India,"Madhya Pradesh",Gwalior,"Deen Dayal Nagar, Gwalior - MPPCB","18-03-2026 16:00:00",26.259242,78.216432,OZONE,47,170,98
India,"Madhya Pradesh",Gwalior,"Maharaj Bada, Gwalior - MPPCB","18-03-2026 16:00:00",26.200388,78.147714,PM2.5,38,321,127
India,"Madhya Pradesh",Gwalior,"Maharaj Bada, Gwalior - MPPCB","18-03-2026 16:00:00",26.200388,78.147714,CO,3,135,21
India,"Madhya Pradesh",Indore,"Chhoti Gwaltoli, Indore - MPPCB","18-03-2026 16:00:00",22.4310,75.5213,NO2,90,206,153
India,"Madhya Pradesh",Indore,"Chhoti Gwaltoli, Indore - MPPCB","18-03-2026 16:00:00",22.4310,75.5213,CO,28,92,34
India,"Madhya Pradesh",Indore,"Chhoti Gwaltoli, Indore - MPPCB","18-03-2026 16:00:00",22.4310,75.5213,OZONE,3,28,9
India,"Madhya Pradesh",Indore,"Regional Park, Indore - IMC","18-03-2026 16:00:00",22.6780,75.8559,NO2,17,28,21
India,"Madhya Pradesh",Indore,"Regional Park, Indore - IMC","18-03-2026 16:00:00",22.6780,75.8559,NH3,NA,NA,NA
India,Maharashtra,Aurangabad,"MIDC Chilkalthana, Aurangabad - MPCB","18-03-2026 16:00:00",19.875620,75.387310,NO2,11,81,31
India,Maharashtra,Aurangabad,"MIDC Chilkalthana, Aurangabad - MPCB","18-03-2026 16:00:00",19.875620,75.387310,CO,7,14,10
India,Maharashtra,Aurangabad,"More Chowk Waluj, Aurangabad - MPCB","18-03-2026 16:00:00",19.8389439,75.244448,PM2.5,44,120,66
India,Maharashtra,Aurangabad,"More Chowk Waluj, Aurangabad - MPCB","18-03-2026 16:00:00",19.8389439,75.244448,NH3,10,11,10
India,Maharashtra,Aurangabad,"More Chowk Waluj, Aurangabad - MPCB","18-03-2026 16:00:00",19.8389439,75.244448,SO2,14,27,18
India,Maharashtra,Aurangabad,"More Chowk Waluj, Aurangabad - MPCB","18-03-2026 16:00:00",19.8389439,75.244448,OZONE,16,90,68
India,Maharashtra,Aurangabad,"Rachnakar Colony, Aurangabad - MPCB","18-03-2026 16:00:00",19.863756,75.321188,OZONE,14,101,81
India,Maharashtra,Badlapur,"Katrap, Badlapur - MPCB","18-03-2026 16:00:00",19.16485,73.23409,PM2.5,58,73,67
India,Maharashtra,Beed,"Bir, Beed - MPCB","18-03-2026 16:00:00",18.988474,75.753873,PM10,24,122,71
India,Maharashtra,Ahmednagar,"Tarakpur, Ahmednagar - MPCB","18-03-2026 16:00:00",19.10122,74.73339,CO,16,107,33
India,Maharashtra,Ahmednagar,"Tarakpur, Ahmednagar - MPCB","18-03-2026 16:00:00",19.10122,74.73339,OZONE,11,129,109
India,Maharashtra,Akola,"Ramdaspeth, Akola - MPCB","18-03-2026 16:00:00",20.719516,77.000253,PM2.5,36,128,75
India,Maharashtra,Akola,"Ramdaspeth, Akola - MPCB","18-03-2026 16:00:00",20.719516,77.000253,NH3,6,8,7
India,Maharashtra,Ambernath,"Chinchpada, Ambernath - MPCB","18-03-2026 16:00:00",19.2157840,73.1997810,NH3,NA,NA,NA
India,Maharashtra,Amravati,"Shri Shivaji Science College, Amravati - MPCB","18-03-2026 16:00:00",20.939198,77.765701,PM2.5,30,97,53
India,Maharashtra,Amravati,"Shri Shivaji Science College, Amravati - MPCB","18-03-2026 16:00:00",20.939198,77.765701,PM10,50,234,97
India,Maharashtra,Amravati,"Shri Shivaji Science College, Amravati - MPCB","18-03-2026 16:00:00",20.939198,77.765701,NH3,2,7,3
India,"Madhya Pradesh",Bhopal,"Paryavaran Parisar, Bhopal - MPPCB","18-03-2026 16:00:00",23.210494,77.425409,PM2.5,12,100,50
India,"Madhya Pradesh",Dewas,"Bhopal Chauraha, Dewas - MPPCB","18-03-2026 16:00:00",22.9682591,76.064118,NH3,14,18,16
India,"Madhya Pradesh",Dewas,"Bhopal Chauraha, Dewas - MPPCB","18-03-2026 16:00:00",22.9682591,76.064118,CO,26,52,38
India,"Madhya Pradesh",Gwalior,"City Center, Gwalior - MPPCB","18-03-2026 16:00:00",26.203442,78.193251,NH3,3,5,4
India,"Madhya Pradesh",Gwalior,"Deen Dayal Nagar, Gwalior - MPPCB","18-03-2026 16:00:00",26.259242,78.216432,PM2.5,48,354,145
India,"Madhya Pradesh",Jabalpur,"Suhagi, Jabalpur - JMC","18-03-2026 16:00:00",23.218135,79.957770,OZONE,62,65,63
India,"Madhya Pradesh",Katni,"Gole Bazar, Katni - MPPCB","18-03-2026 16:00:00",23.50016,80.23284,PM10,74,402,124
India,"Madhya Pradesh",Katni,"Gole Bazar, Katni - MPPCB","18-03-2026 16:00:00",23.50016,80.23284,NO2,20,51,34
India,"Madhya Pradesh",Katni,"Gole Bazar, Katni - MPPCB","18-03-2026 16:00:00",23.50016,80.23284,NH3,5,9,8
India,"Madhya Pradesh",Mandideep,"Sector-D Industrial Area, Mandideep - MPPCB","18-03-2026 16:00:00",23.108440,77.511428,OZONE,4,107,79
India,Maharashtra,Beed,"Bir, Beed - MPCB","18-03-2026 16:00:00",18.988474,75.753873,OZONE,18,54,46
India,Maharashtra,Belapur,"CBD Belapur, Belapur - MPCB","18-03-2026 16:00:00",19.0243902,73.0406721,NH3,3,4,4
India,Maharashtra,Bhiwandi,"Gokul Nagar, Bhiwandi - MPCB","18-03-2026 16:00:00",19.309073,73.057223,PM10,74,153,110
India,Maharashtra,Bhiwandi,"Gokul Nagar, Bhiwandi - MPCB","18-03-2026 16:00:00",19.309073,73.057223,NO2,10,47,24
India,Maharashtra,Chandrapur,"MIDC Khutala, Chandrapur - MPCB","18-03-2026 16:00:00",19.9775302,79.2337086,SO2,4,40,12
India,Maharashtra,Dhule,"Deopur, Dhule - MPCB","18-03-2026 16:00:00",20.918946,74.776388,NO2,3,21,10
India,Maharashtra,Dombivli,"Kalu Nagar, Dombivli - MPCB","18-03-2026 16:00:00","19.2268427 ","73.0788456 ",PM2.5,10,81,27
India,Maharashtra,Dombivli,"Kalu Nagar, Dombivli - MPCB","18-03-2026 16:00:00","19.2268427 ","73.0788456 ",SO2,2,31,10
India,Maharashtra,Dombivli,"Kalu Nagar, Dombivli - MPCB","18-03-2026 16:00:00","19.2268427 ","73.0788456 ",CO,8,57,23
India,Maharashtra,Hingoli,"Ashta Vinayak Nagar, Hingoli - MPCB","18-03-2026 16:00:00",19.710842,77.151824,CO,10,95,13
India,Maharashtra,Jalna,"Old MIDC, Jalna - MPCB","18-03-2026 16:00:00",19.854616,75.905894,NO2,4,12,7
India,Maharashtra,Jalna,"Old MIDC, Jalna - MPCB","18-03-2026 16:00:00",19.854616,75.905894,OZONE,15,75,58
India,Maharashtra,Kalyan,"Khadakpada, Kalyan - MPCB","18-03-2026 16:00:00",19.25292,73.142019,PM10,22,78,52
India,Maharashtra,Kolhapur,"Shivaji University, Kolhapur - MPCB","18-03-2026 16:00:00",16.6870449,74.2505872,NH3,3,4,4
India,Maharashtra,Kolhapur,"Sinchan Bhavan, Kolhapur - MPCB","18-03-2026 16:00:00",16.7143745,74.2426398,PM2.5,NA,NA,NA
India,Maharashtra,Malegaon,"Mahesh Nagar, Malegaon - MPCB","18-03-2026 16:00:00",20.555712,74.529236,PM10,58,118,95
India,Maharashtra,Malegaon,"Mahesh Nagar, Malegaon - MPCB","18-03-2026 16:00:00",20.555712,74.529236,NO2,2,6,4
India,Maharashtra,Mumbai,"Bandra Kurla Complex, Mumbai - IITM","18-03-2026 16:00:00",19.053536,72.84643,OZONE,1,50,21
India,Maharashtra,Mumbai,"Bandra Kurla Complex, Mumbai - IITM","18-03-2026 16:00:00",19.053536,72.84643,NO2,21,58,39
India,Maharashtra,Mahad,"Kamble Tarf Birwadi, Mahad - MPCB","18-03-2026 16:00:00",18.1023399,73.4783687,SO2,9,90,49
India,Maharashtra,Mumbai,"Bandra Kurla Complex, Mumbai - IITM","18-03-2026 16:00:00",19.053536,72.84643,SO2,1,13,4
India,Maharashtra,Mumbai,"Bandra Kurla Complex, Mumbai - MPCB","18-03-2026 16:00:00",19.065931,72.862131,CO,15,15,15
India,Maharashtra,Mumbai,"Chembur, Mumbai - MPCB","18-03-2026 16:00:00",19.0364585,72.8954371,SO2,1,121,13
India,Maharashtra,Mumbai,"Chembur, Mumbai - MPCB","18-03-2026 16:00:00",19.0364585,72.8954371,CO,20,48,35
India,Maharashtra,Mumbai,"Colaba, Mumbai - MPCB","18-03-2026 16:00:00",18.910000,72.820000,NO2,27,28,27
India,Maharashtra,Mumbai,"Chakala-Andheri East, Mumbai - IITM","18-03-2026 16:00:00",19.11074,72.86084,NH3,17,39,23
India,Maharashtra,Mumbai,"Chakala-Andheri East, Mumbai - IITM","18-03-2026 16:00:00",19.11074,72.86084,SO2,1,24,9
India,Maharashtra,Mumbai,"Chakala-Andheri East, Mumbai - IITM","18-03-2026 16:00:00",19.11074,72.86084,CO,12,67,36
India,Maharashtra,Mumbai,"Colaba, Mumbai - MPCB","18-03-2026 16:00:00",18.910000,72.820000,SO2,NA,NA,NA
India,Maharashtra,Mumbai,"Deonar, Mumbai - IITM","18-03-2026 16:00:00",19.04946,72.9230,PM2.5,18,71,41
India,Maharashtra,Mumbai,"Chakala-Andheri East, Mumbai - IITM","18-03-2026 16:00:00",19.11074,72.86084,PM2.5,26,75,44
India,Maharashtra,Mumbai,"Kandivali West, Mumbai - BMC","18-03-2026 16:00:00",19.215859,72.831718,OZONE,2,64,43
India,Maharashtra,Mumbai,"Kandivali East, Mumbai - MPCB","18-03-2026 16:00:00",19.205800,72.868200,SO2,21,24,22
India,Maharashtra,Mumbai,"Kandivali East, Mumbai - MPCB","18-03-2026 16:00:00",19.205800,72.868200,OZONE,15,15,15
India,Maharashtra,Mumbai,"Borivali East, Mumbai - IITM","18-03-2026 16:00:00",19.23241,72.86895,NH3,5,10,7
India,Maharashtra,Mumbai,"Deonar, Mumbai - IITM","18-03-2026 16:00:00",19.04946,72.9230,SO2,1,7,3
India,Maharashtra,Mumbai,"Navy Nagar-Colaba, Mumbai - IITM","18-03-2026 16:00:00",18.897756,72.813320,NH3,6,9,7
India,Maharashtra,Mumbai,"Navy Nagar-Colaba, Mumbai - IITM","18-03-2026 16:00:00",18.897756,72.813320,OZONE,10,69,51
India,Maharashtra,Mumbai,"Powai, Mumbai - MPCB","18-03-2026 16:00:00",19.137500,72.915056,SO2,9,14,12
India,Maharashtra,Mumbai,"Khindipada-Bhandup West, Mumbai - IITM","18-03-2026 16:00:00",19.1653323,72.922099,PM2.5,19,80,50
India,Maharashtra,Mumbai,"Khindipada-Bhandup West, Mumbai - IITM","18-03-2026 16:00:00",19.1653323,72.922099,PM10,57,107,77
India,Maharashtra,Mumbai,"Kherwadi_Bandra East, Mumbai - MPCB","18-03-2026 16:00:00",19.0632143,72.8456324,PM10,55,124,78
India,Maharashtra,Mumbai,"Mindspace-Malad West, Mumbai - MPCB","18-03-2026 16:00:00",19.1878657,72.8304069,OZONE,4,17,11
India,Maharashtra,Mumbai,"Khindipada-Bhandup West, Mumbai - IITM","18-03-2026 16:00:00",19.1653323,72.922099,CO,2,38,14
India,Maharashtra,Mumbai,"Mindspace-Malad West, Mumbai - MPCB","18-03-2026 16:00:00",19.1878657,72.8304069,NO2,5,54,20
India,Maharashtra,Mumbai,"Malad West, Mumbai - IITM","18-03-2026 16:00:00",19.19709,72.82204,NO2,30,96,46
India,Maharashtra,Mumbai,"Mazgaon, Mumbai - IITM","18-03-2026 16:00:00",18.96702,72.84214,NH3,12,22,15
India,Maharashtra,Mumbai,"Kurla, Mumbai - MPCB","18-03-2026 16:00:00",19.0863,72.8888,NO2,NA,NA,NA
India,Maharashtra,Nagpur,"Opp GPO Civil Lines, Nagpur - MPCB","18-03-2026 16:00:00",21.152875,79.0517531,OZONE,4,37,30
India,Maharashtra,Nagpur,"Ram Nagar, Nagpur - MPCB","18-03-2026 16:00:00",21.143383,79.048912,PM10,48,119,81
India,Maharashtra,Nagpur,"Ram Nagar, Nagpur - MPCB","18-03-2026 16:00:00",21.143383,79.048912,CO,12,64,14
India,Maharashtra,Nanded,"Sneh Nagar, Nanded - MPCB","18-03-2026 16:00:00",19.173852,77.296291,PM10,31,100,68
India,Maharashtra,Nashik,"Hirawadi, Nashik - MPCB","18-03-2026 16:00:00",20.021503,73.813844,PM10,84,250,124
India,Maharashtra,Nashik,"Hirawadi, Nashik - MPCB","18-03-2026 16:00:00",20.021503,73.813844,SO2,24,103,42
India,Maharashtra,Nashik,"MIDC Ambad, Nashik - MPCB","18-03-2026 16:00:00",19.950220,73.731480,NO2,5,29,11
India,Maharashtra,Nashik,"MIDC Ambad, Nashik - MPCB","18-03-2026 16:00:00",19.950220,73.731480,NH3,2,4,2
India,Maharashtra,Nashik,"Pandav Nagari, Nashik - MPCB","18-03-2026 16:00:00",19.9591346,73.7788008,PM2.5,31,73,53
India,Maharashtra,Pimpri-Chinchwad,"Thergaon, Pimpri Chinchwad - MPCB","18-03-2026 16:00:00",18.616318,73.765797,OZONE,22,70,48
India,Maharashtra,Pune,"Bhosari, Pune - IITM","18-03-2026 16:00:00",18.640051,73.848956,PM2.5,24,108,60
India,Maharashtra,Pune,"Dhankawadi, Pune - IITM","18-03-2026 16:00:00",18.459883,73.852193,NO2,4,53,18
India,Maharashtra,Pune,"Hadapsar, Pune - IITM","18-03-2026 16:00:00",18.501793,73.927532,PM2.5,11,135,86
India,Maharashtra,Pune,"Katraj Dairy, Pune - MPCB","18-03-2026 16:00:00",18.454450,73.854155,SO2,2,3,2
India,Maharashtra,Pune,"Panchawati_Pashan, Pune - IITM","18-03-2026 16:00:00",18.536457,73.805454,CO,7,69,37
India,Maharashtra,Nashik,"Pandav Nagari, Nashik - MPCB","18-03-2026 16:00:00",19.9591346,73.7788008,CO,10,26,18
India,Maharashtra,Nashik,"Pandav Nagari, Nashik - MPCB","18-03-2026 16:00:00",19.9591346,73.7788008,OZONE,7,86,59
India,Maharashtra,"Navi Mumbai","Kopripada-Vashi, Navi Mumbai - MPCB","18-03-2026 16:00:00",19.090337,73.014232,PM2.5,NA,NA,NA
India,Maharashtra,"Navi Mumbai","Kopripada-Vashi, Navi Mumbai - MPCB","18-03-2026 16:00:00",19.090337,73.014232,PM10,NA,NA,NA
India,Maharashtra,"Navi Mumbai","Mahape, Navi Mumbai - MPCB","18-03-2026 16:00:00",19.1135051,73.008978,PM2.5,20,94,55
India,Maharashtra,"Navi Mumbai","Mahape, Navi Mumbai - MPCB","18-03-2026 16:00:00",19.1135051,73.008978,NO2,83,86,85
India,Maharashtra,"Navi Mumbai","Sanpada, Navi Mumbai - MPCB","18-03-2026 16:00:00",19.0575752,73.0151367,PM10,NA,NA,NA
India,Maharashtra,"Navi Mumbai","Sanpada, Navi Mumbai - MPCB","18-03-2026 16:00:00",19.0575752,73.0151367,NH3,NA,NA,NA
India,Maharashtra,Parbhani,"Masoom Colony, Parbhani - MPCB","18-03-2026 16:00:00",19.265594,76.761463,CO,9,14,11
India,Maharashtra,Pimpri-Chinchwad,"Gavalinagar, Pimpri Chinchwad - MPCB","18-03-2026 16:00:00",18.63673,73.82487,PM2.5,NA,NA,NA
India,Maharashtra,Pimpri-Chinchwad,"Gavalinagar, Pimpri Chinchwad - MPCB","18-03-2026 16:00:00",18.63673,73.82487,NO2,NA,NA,NA
India,Maharashtra,Pimpri-Chinchwad,"Gavalinagar, Pimpri Chinchwad - MPCB","18-03-2026 16:00:00",18.63673,73.82487,NH3,NA,NA,NA
India,Maharashtra,Pimpri-Chinchwad,"Gavalinagar, Pimpri Chinchwad - MPCB","18-03-2026 16:00:00",18.63673,73.82487,CO,17,41,28
India,Maharashtra,Pimpri-Chinchwad,"Gavalinagar, Pimpri Chinchwad - MPCB","18-03-2026 16:00:00",18.63673,73.82487,OZONE,2,76,46
India,Maharashtra,Pimpri-Chinchwad,"Park Street Wakad, Pimpri Chinchwad - MPCB","18-03-2026 16:00:00",18.59051,73.77946,PM2.5,22,94,56
India,Maharashtra,Mumbai,"Worli, Mumbai -MPCB","18-03-2026 16:00:00",18.9942180,72.8158167,SO2,26,35,28
India,Maharashtra,Nagpur,"Ambazari, Nagpur - MPCB","18-03-2026 16:00:00",21.121801,79.04952,SO2,11,64,30
India,Maharashtra,Nagpur,"Ambazari, Nagpur - MPCB","18-03-2026 16:00:00",21.121801,79.04952,CO,5,126,12
India,Maharashtra,Nagpur,"Mahal, Nagpur - MPCB","18-03-2026 16:00:00",21.14472,79.107595,CO,7,156,36
India,Maharashtra,Nagpur,"Mahal, Nagpur - MPCB","18-03-2026 16:00:00",21.14472,79.107595,OZONE,11,37,25
India,Maharashtra,Nagpur,"Opp GPO Civil Lines, Nagpur - MPCB","18-03-2026 16:00:00",21.152875,79.0517531,PM2.5,33,162,74
India,Maharashtra,"Navi Mumbai","Sanpada, Navi Mumbai - MPCB","18-03-2026 16:00:00",19.0575752,73.0151367,CO,6,50,10
India,Maharashtra,"Navi Mumbai","Sector-2E Kalamboli, Navi Mumbai - MPCB","18-03-2026 16:00:00",19.02579,73.10297,SO2,4,14,8
India,Maharashtra,"Navi Mumbai","Tondare-Taloja, Navi Mumbai - MPCB","18-03-2026 16:00:00",19.0630,73.1209,NH3,5,11,8
India,Maharashtra,Parbhani,"Masoom Colony, Parbhani - MPCB","18-03-2026 16:00:00",19.265594,76.761463,NO2,9,83,50
India,Maharashtra,Sangli,"Vijay Nagar, Sangli - MPCB","18-03-2026 16:00:00"," 16.5038",74.3623,PM10,NA,NA,NA
India,Maharashtra,Sangli,"Vijay Nagar, Sangli - MPCB","18-03-2026 16:00:00"," 16.5038",74.3623,NH3,NA,NA,NA
India,Maharashtra,Sangli,"Vijay Nagar, Sangli - MPCB","18-03-2026 16:00:00"," 16.5038",74.3623,SO2,NA,NA,NA
India,Maharashtra,Sangli,"Vijay Nagar, Sangli - MPCB","18-03-2026 16:00:00"," 16.5038",74.3623,CO,14,62,32
India,Maharashtra,Solapur,"Dnyaneshwar Nagar, Solapur - MPCB","18-03-2026 16:00:00",17.6336264,75.9132495,NH3,7,23,13
India,Maharashtra,Mumbai,"Sion, Mumbai - MPCB","18-03-2026 16:00:00",19.047000,72.874600,NO2,28,33,30
India,Maharashtra,Mumbai,"Vile Parle West, Mumbai - MPCB","18-03-2026 16:00:00",19.10861,72.83622,SO2,48,51,50
India,Maharashtra,Mumbai,"Worli, Mumbai -MPCB","18-03-2026 16:00:00",18.9942180,72.8158167,PM10,61,122,89
India,Maharashtra,Mumbai,"Sewri, Mumbai - BMC","18-03-2026 16:00:00",19.000084,72.856730,CO,7,42,16
India,Maharashtra,Mumbai,"Shivaji Nagar, Mumbai - BMC","18-03-2026 16:00:00",19.060498,72.923356,NO2,10,25,15
India,Punjab,Amritsar,"Golden Temple, Amritsar - PPCB","18-03-2026 16:00:00",31.620000,74.876512,PM10,27,154,109
India,Punjab,Bathinda,"Hardev Nagar, Bathinda - PPCB","18-03-2026 16:00:00",30.233011,74.907758,NO2,27,30,29
India,Punjab,Jalandhar,"Civil Line, Jalandhar - PPCB","18-03-2026 16:00:00",31.321907,75.578914,PM2.5,34,99,56
India,Punjab,Jalandhar,"Civil Line, Jalandhar - PPCB","18-03-2026 16:00:00",31.321907,75.578914,NO2,33,39,36
India,Punjab,Jalandhar,"Civil Line, Jalandhar - PPCB","18-03-2026 16:00:00",31.321907,75.578914,NH3,5,6,6
India,Punjab,Khanna,"Kalal Majra, Khanna - PPCB","18-03-2026 16:00:00","30.736056 ",76.209694,PM10,47,98,75
India,Punjab,Khanna,"Kalal Majra, Khanna - PPCB","18-03-2026 16:00:00","30.736056 ",76.209694,NO2,24,30,28
India,Punjab,Khanna,"Kalal Majra, Khanna - PPCB","18-03-2026 16:00:00","30.736056 ",76.209694,SO2,6,15,10
India,Punjab,Khanna,"Kalal Majra, Khanna - PPCB","18-03-2026 16:00:00","30.736056 ",76.209694,OZONE,19,40,38
India,Punjab,Ludhiana,"Punjab Agricultural University, Ludhiana - PPCB","18-03-2026 16:00:00",30.9028,75.8086,OZONE,34,49,44
India,Punjab,"Mandi Gobindgarh","RIMT University, Mandi Gobindgarh - PPCB","18-03-2026 16:00:00",30.649961,76.331442,NO2,23,25,24
India,Nagaland,Kohima,"PWD Junction, Kohima - NPCB","18-03-2026 16:00:00",25.6635413,94.0989878,CO,3,6,4
India,Odisha,Angul,"Hakimapada, Angul - OSPCB","18-03-2026 16:00:00",20.832874,85.104082,CO,10,67,28
India,Odisha,Balasore,"Kalidaspur, Balasore - OSPCB","18-03-2026 16:00:00",21.51161,86.89088,CO,40,50,47
India,Odisha,Barbil,"Forest Office, Barbil - OSPCB","18-03-2026 16:00:00",22.1166054,85.3945546,CO,32,161,125
India,Odisha,Baripada,"Meher Colony, Baripada - OSPCB","18-03-2026 16:00:00",21.941841,86.728318,PM10,23,69,41
India,Odisha,Baripada,"Meher Colony, Baripada - OSPCB","18-03-2026 16:00:00",21.941841,86.728318,CO,28,54,50
India,Odisha,Bhubaneswar,"Lingraj Mandir, Bhubaneswar - OSPCB","18-03-2026 16:00:00",20.240790,85.836784,NH3,4,6,5
India,Odisha,Bhubaneswar,"Lingraj Mandir, Bhubaneswar - OSPCB","18-03-2026 16:00:00",20.240790,85.836784,SO2,5,17,7
India,Odisha,Bhubaneswar,"Patia, Bhubaneswar - OSPCB","18-03-2026 16:00:00",20.34652,85.81630,PM2.5,5,33,14
India,Odisha,Rairangpur,"Divisional Forest Office, Rairangpur - OSPCB","18-03-2026 16:00:00",22.265816,86.174829,OZONE,3,41,29
India,Odisha,Rourkela,"Sector-2, Rourkela - OSPCB","18-03-2026 16:00:00",22.24500000,84.88111111,PM2.5,41,49,46
India,Odisha,Rourkela,"Sector-2, Rourkela - OSPCB","18-03-2026 16:00:00",22.24500000,84.88111111,PM10,46,99,88
India,Odisha,Suakati,"OMC Colony, Suakati - OSPCB","18-03-2026 16:00:00",21.606865,85.510538,NH3,7,7,7
India,Odisha,Suakati,"OMC Colony, Suakati - OSPCB","18-03-2026 16:00:00",21.606865,85.510538,SO2,1,9,4
India,Odisha,Talcher,"Talcher Coalfields,Talcher - OSPCB","18-03-2026 16:00:00",20.9360711,85.1707021,SO2,2,29,13
India,Puducherry,Puducherry,"Jawahar Nagar, Puducherry - PPCC","18-03-2026 16:00:00",11.9309,79.8027,NO2,3,28,9
India,Puducherry,Puducherry,"Jawahar Nagar, Puducherry - PPCC","18-03-2026 16:00:00",11.9309,79.8027,SO2,3,11,7
India,Rajasthan,Banswara,"Rati Talai, Banswara - RSPCB","18-03-2026 16:00:00",23.555190,74.440010,OZONE,35,154,91
India,Rajasthan,Baran,"Bamboliya, Baran - RSPCB","18-03-2026 16:00:00",25.106006,76.469948,SO2,5,20,11
India,Rajasthan,Barmer,"Railway Colony, Barmer - RSPCB","18-03-2026 16:00:00",25.747299,71.393989,SO2,3,24,8
India,Rajasthan,Barmer,"Railway Colony, Barmer - RSPCB","18-03-2026 16:00:00",25.747299,71.393989,CO,4,56,21
India,Rajasthan,Bhilwara,"Pratap Nagar, Bhilwara - RSPCB","18-03-2026 16:00:00",25.339605,74.618883,PM2.5,22,183,65
India,Rajasthan,Bhilwara,"Pratap Nagar, Bhilwara - RSPCB","18-03-2026 16:00:00",25.339605,74.618883,PM10,77,405,160
India,Rajasthan,Bhiwadi,"RIICO Ind. Area III, Bhiwadi - RSPCB","18-03-2026 16:00:00",28.194909,76.862296,SO2,1,15,10
India,Rajasthan,Bhiwadi,"RIICO Ind. Area III, Bhiwadi - RSPCB","18-03-2026 16:00:00",28.194909,76.862296,CO,14,119,75
India,Maharashtra,Ulhasnagar,"Vithalwadi, Ulhasnagar - MPCB","18-03-2026 16:00:00","19.2307571 ",73.1551920,CO,2,34,2
India,Meghalaya,Shillong,"Lumpyngngad, Shillong - Meghalaya PCB","18-03-2026 16:00:00",25.5586,91.8985,PM2.5,3,21,12
India,Meghalaya,Shillong,"Lumpyngngad, Shillong - Meghalaya PCB","18-03-2026 16:00:00",25.5586,91.8985,CO,6,11,9
India,Mizoram,Aizawl,"Sikulpuikawn, Aizawl - Mizoram PCB","18-03-2026 16:00:00",23.7176342,92.7192841,PM2.5,1,36,25
India,Mizoram,Aizawl,"Sikulpuikawn, Aizawl - Mizoram PCB","18-03-2026 16:00:00",23.7176342,92.7192841,CO,3,4,3
India,Nagaland,Kohima,"PWD Junction, Kohima - NPCB","18-03-2026 16:00:00",25.6635413,94.0989878,NH3,1,1,1
India,Maharashtra,Thane,"Kasarvadavali, Thane - MPCB","18-03-2026 16:00:00",19.26777,72.97182,NO2,11,29,19
India,Maharashtra,Thane,"Kasarvadavali, Thane - MPCB","18-03-2026 16:00:00",19.26777,72.97182,NH3,4,9,6
India,Maharashtra,Thane,"Kasarvadavali, Thane - MPCB","18-03-2026 16:00:00",19.26777,72.97182,OZONE,2,53,32
India,Maharashtra,Thane,"Upvan Fort, Thane - MPCB","18-03-2026 16:00:00",19.222279,72.957979,PM10,64,117,88
India,Maharashtra,Thane,"Upvan Fort, Thane - MPCB","18-03-2026 16:00:00",19.222279,72.957979,NO2,1,5,2
India,Maharashtra,Thane,"Upvan Fort, Thane - MPCB","18-03-2026 16:00:00",19.222279,72.957979,CO,3,68,35
India,Maharashtra,Ulhasnagar,"Sidhi Vinayak Nagar, Ulhasnagar - MPCB","18-03-2026 16:00:00",19.235581,73.159121,PM2.5,47,89,69
India,Punjab,Patiala,"Model Town, Patiala - PPCB","18-03-2026 16:00:00",30.349388,76.366642,PM2.5,39,99,70
India,Punjab,Patiala,"Model Town, Patiala - PPCB","18-03-2026 16:00:00",30.349388,76.366642,PM10,70,127,103
India,Rajasthan,Ajmer,"Civil Lines,  Ajmer - RSPCB","18-03-2026 16:00:00",26.470859,74.646594,SO2,12,24,14
India,Rajasthan,Ajmer,"Civil Lines,  Ajmer - RSPCB","18-03-2026 16:00:00",26.470859,74.646594,OZONE,NA,NA,NA
India,Rajasthan,Alwar,"Moti Doongri, Alwar - RSPCB","18-03-2026 16:00:00",27.554793,76.611536,NH3,7,13,10
India,Rajasthan,Alwar,"Moti Doongri, Alwar - RSPCB","18-03-2026 16:00:00",27.554793,76.611536,OZONE,9,83,44
India,Odisha,Bhubaneswar,"Patia, Bhubaneswar - OSPCB","18-03-2026 16:00:00",20.34652,85.81630,NO2,6,13,9
India,Odisha,Bhubaneswar,"Patia, Bhubaneswar - OSPCB","18-03-2026 16:00:00",20.34652,85.81630,SO2,6,34,9
India,Odisha,Bhubaneswar,"Patia, Bhubaneswar - OSPCB","18-03-2026 16:00:00",20.34652,85.81630,OZONE,9,62,39
India,Odisha,Brajrajnagar,"GM Office, Brajrajnagar - OSPCB","18-03-2026 16:00:00",21.8004996,83.8396977,OZONE,8,96,70
India,Odisha,Rairangpur,"Divisional Forest Office, Rairangpur - OSPCB","18-03-2026 16:00:00",22.265816,86.174829,NO2,11,12,11
India,Maharashtra,Solapur,"Ratandeep Housing Society, Solapur - MPCB","18-03-2026 16:00:00",17.65439,75.90649,CO,17,103,22
India,Maharashtra,Solapur,"Ratandeep Housing Society, Solapur - MPCB","18-03-2026 16:00:00",17.65439,75.90649,OZONE,6,43,31
India,Rajasthan,"Sri Ganganagar","Old City, Sri Ganganagar - RSPCB","18-03-2026 16:00:00",29.931624,73.864511,PM10,51,197,98
India,Rajasthan,Tonk,"Shastri Nagar, Tonk - RSPCB","18-03-2026 16:00:00",26.159933,75.780517,NO2,14,107,41
India,Rajasthan,Tonk,"Shastri Nagar, Tonk - RSPCB","18-03-2026 16:00:00",26.159933,75.780517,CO,22,121,36
India,Rajasthan,Udaipur,"Ashok Nagar, Udaipur - RSPCB","18-03-2026 16:00:00",24.5886166,73.6321397,PM2.5,46,156,88
India,Rajasthan,Udaipur,"Ashok Nagar, Udaipur - RSPCB","18-03-2026 16:00:00",24.5886166,73.6321397,CO,4,168,70
India,Sikkim,Gangtok,"Zero Point GICI, Gangtok - SSPCB","18-03-2026 16:00:00",27.338530,88.614099,NO2,6,60,9
India,Sikkim,Gangtok,"Zero Point GICI, Gangtok - SSPCB","18-03-2026 16:00:00",27.338530,88.614099,CO,2,19,4
India,Sikkim,Gangtok,"Zero Point GICI, Gangtok - SSPCB","18-03-2026 16:00:00",27.338530,88.614099,OZONE,5,27,22
India,TamilNadu,Chennai,"Arumbakkam, Chennai - TNPCB","18-03-2026 16:00:00",13.0664,"80.2112 ",PM10,31,500,95
India,TamilNadu,Chennai,"Kodungaiyur, Chennai - TNPCB","18-03-2026 16:00:00",13.1278,80.2642,SO2,4,7,6
India,Rajasthan,Jhalawar,"Rajlaxmi Nagar, Jhalawar - RSPCB","18-03-2026 16:00:00",24.588397,76.172782,CO,21,97,27
India,Rajasthan,Jhunjhunu,"Indra Nagar, Jhunjhunu - RSPCB","18-03-2026 16:00:00",28.108988,75.386577,PM2.5,25,86,56
India,Rajasthan,Jodhpur,"Collectorate, Jodhpur - RSPCB","18-03-2026 16:00:00",26.268249,73.0193853,PM2.5,37,127,62
India,Rajasthan,Jodhpur,"Collectorate, Jodhpur - RSPCB","18-03-2026 16:00:00",26.268249,73.0193853,PM10,47,113,70
India,Rajasthan,Jodhpur,"Collectorate, Jodhpur - RSPCB","18-03-2026 16:00:00",26.268249,73.0193853,CO,5,117,64
India,Rajasthan,Jodhpur,"Digari Kalan, Jodhpur - RSPCB","18-03-2026 16:00:00",26.295810,73.082283,PM2.5,17,123,56
India,Rajasthan,Jodhpur,"Jhalamand, Jodhpur - RSPCB","18-03-2026 16:00:00",26.215415,73.070156,NO2,5,92,39
India,Rajasthan,Jodhpur,"Mandor, Jodhpur - RSPCB","18-03-2026 16:00:00",26.358805,73.047444,NO2,4,71,25
India,Rajasthan,Jodhpur,"Mandor, Jodhpur - RSPCB","18-03-2026 16:00:00",26.358805,73.047444,NH3,2,5,4
India,Rajasthan,Dholpur,"Raja Ganj, Dholpur - RSPCB","18-03-2026 16:00:00",26.699557,77.898881,PM2.5,28,301,116
India,Rajasthan,Dholpur,"Raja Ganj, Dholpur - RSPCB","18-03-2026 16:00:00",26.699557,77.898881,SO2,5,19,9
India,Rajasthan,Dholpur,"Raja Ganj, Dholpur - RSPCB","18-03-2026 16:00:00",26.699557,77.898881,CO,36,68,55
India,Rajasthan,Dungarpur,"Bhoiwada, Dungarpur - RSPCB","18-03-2026 16:00:00",23.837789,73.714926,NH3,8,16,11
India,Rajasthan,Hanumangarh,"Housing Board, Hanumangarh - RSPCB","18-03-2026 16:00:00",29.610750,74.283608,NH3,2,5,4
India,Rajasthan,Hanumangarh,"Housing Board, Hanumangarh - RSPCB","18-03-2026 16:00:00",29.610750,74.283608,SO2,6,13,9
India,Rajasthan,Jaipur,"Adarsh Nagar, Jaipur - RSPCB","18-03-2026 16:00:00",26.902909,75.836858,NO2,16,79,28
India,Rajasthan,Jaipur,"Adarsh Nagar, Jaipur - RSPCB","18-03-2026 16:00:00",26.902909,75.836858,OZONE,19,73,69
India,Rajasthan,Jaipur,"Mansarovar Sector-12, Jaipur - RSPCB","18-03-2026 16:00:00",26.843698,75.766894,NH3,7,11,9
India,Rajasthan,Pali,"Indira Colony Vistar, Pali - RSPCB","18-03-2026 16:00:00",25.771061," 73.340227",NO2,21,24,23
India,Rajasthan,Pali,"Indira Colony Vistar, Pali - RSPCB","18-03-2026 16:00:00",25.771061," 73.340227",OZONE,8,72,49
India,Rajasthan,Pratapgarh,"Pragati Nagar, Pratapgarh - RSPCB","18-03-2026 16:00:00",24.041198,74.780702,SO2,7,26,12
India,Rajasthan,Rajsamand,"Dhoinda, Rajsamand - RSPCB","18-03-2026 16:00:00",25.036360,73.883502,NH3,7,22,14
India,Rajasthan,Rajsamand,"Dhoinda, Rajsamand - RSPCB","18-03-2026 16:00:00",25.036360,73.883502,CO,8,98,29
India,Rajasthan,Sirohi,"Vedhaynath Colony, Sirohi - RSPCB","18-03-2026 16:00:00",24.885261,72.857549,PM10,60,133,85
India,Rajasthan,Sirohi,"Vedhaynath Colony, Sirohi - RSPCB","18-03-2026 16:00:00",24.885261,72.857549,NH3,1,4,2
India,Rajasthan,Sirohi,"Vedhaynath Colony, Sirohi - RSPCB","18-03-2026 16:00:00",24.885261,72.857549,CO,13,31,21
India,Rajasthan,Karauli,"Satyawati Vihar, Karauli - RSPCB","18-03-2026 16:00:00",26.506177,77.025989,PM10,74,227,130
India,Rajasthan,Karauli,"Satyawati Vihar, Karauli - RSPCB","18-03-2026 16:00:00",26.506177,77.025989,OZONE,4,110,89
India,Rajasthan,Kota,"Dhanmandi, Kota - RSPCB","18-03-2026 16:00:00",25.164090,75.858137,OZONE,1,111,91
India,Rajasthan,Kota,"Nayapura, Kota - RSPCB","18-03-2026 16:00:00",25.196024,75.855668,PM2.5,27,230,105
India,Rajasthan,Kota,"Nayapura, Kota - RSPCB","18-03-2026 16:00:00",25.196024,75.855668,PM10,89,297,151
India,Rajasthan,Kota,"Nayapura, Kota - RSPCB","18-03-2026 16:00:00",25.196024,75.855668,NH3,2,18,8
India,Rajasthan,Kota,"Nayapura, Kota - RSPCB","18-03-2026 16:00:00",25.196024,75.855668,CO,12,105,20
India,Rajasthan,Nagaur,"Karni Colony, Nagaur - RSPCB","18-03-2026 16:00:00",27.213494,73.734444,SO2,3,13,6
India,Rajasthan,Jaipur,"Police Commissionerate, Jaipur - RSPCB","18-03-2026 16:00:00",26.9164092,75.7994901,OZONE,16,77,60
India,Rajasthan,Jaipur,"Sector-2 Murlipura, Jaipur - RSPCB","18-03-2026 16:00:00",26.960669,75.771817,PM10,72,200,107
India,Rajasthan,Jaipur,"Shastri Nagar, Jaipur - RSPCB","18-03-2026 16:00:00",26.9502929,75.730943,NH3,6,18,10
India,Rajasthan,Jaipur,"Shastri Nagar, Jaipur - RSPCB","18-03-2026 16:00:00",26.9502929,75.730943,SO2,20,38,26
India,Rajasthan,Jaipur,"Shastri Nagar, Jaipur - RSPCB","18-03-2026 16:00:00",26.9502929,75.730943,OZONE,17,50,45
India,Rajasthan,Jaisalmer,"Sadar Bazar, Jaisalmer - RSPCB","18-03-2026 16:00:00",26.912329,70.909168,NH3,8,13,10
India,Rajasthan,Jaisalmer,"Sadar Bazar, Jaisalmer - RSPCB","18-03-2026 16:00:00",26.912329,70.909168,CO,12,42,18
India,Rajasthan,Bhiwadi,"Vasundhara Nagar_UIT, Bhiwadi - RSPCB","18-03-2026 16:00:00",28.207266,76.829265,OZONE,4,175,100
India,Rajasthan,Bikaner,"MM Ground, Bikaner - RSPCB","18-03-2026 16:00:00",28.018792,73.292658,NO2,12,85,32
India,Rajasthan,Bundi,"New Colony, Bundi - RSPCB","18-03-2026 16:00:00",25.435774,75.644272,SO2,5,14,8
India,Rajasthan,Bundi,"New Colony, Bundi - RSPCB","18-03-2026 16:00:00",25.435774,75.644272,OZONE,15,126,110
India,Rajasthan,Chittorgarh,"Shastri Nagar, Chittorgarh - RSPCB","18-03-2026 16:00:00",24.892047,74.623527,PM2.5,33,133,70
India,Rajasthan,Chittorgarh,"Shastri Nagar, Chittorgarh - RSPCB","18-03-2026 16:00:00",24.892047,74.623527,OZONE,1,109,73
India,Rajasthan,Jalore,"Mudtra Sili, Jalore - RSPCB","18-03-2026 16:00:00",25.344694,72.626208,CO,14,110,33
India,Rajasthan,Jhalawar,"Rajlaxmi Nagar, Jhalawar - RSPCB","18-03-2026 16:00:00",24.588397,76.172782,PM2.5,18,92,49
India,Rajasthan,Jhalawar,"Rajlaxmi Nagar, Jhalawar - RSPCB","18-03-2026 16:00:00",24.588397,76.172782,NO2,30,78,41
India,Rajasthan,Jhalawar,"Rajlaxmi Nagar, Jhalawar - RSPCB","18-03-2026 16:00:00",24.588397,76.172782,SO2,9,48,15
India,Rajasthan,Jodhpur,"Mandor, Jodhpur - RSPCB","18-03-2026 16:00:00",26.358805,73.047444,CO,9,37,16
India,Rajasthan,Jodhpur,"Samrat Ashok Udhyan, Jodhpur - RSPCB","18-03-2026 16:00:00",26.253384,72.976571,PM2.5,22,163,73
India,Rajasthan,Jodhpur,"Samrat Ashok Udhyan, Jodhpur - RSPCB","18-03-2026 16:00:00",26.253384,72.976571,NH3,4,8,6
India,TamilNadu,Coimbatore,"SIDCO Kurichi, Coimbatore - TNPCB","18-03-2026 16:00:00",10.942451,76.978996,SO2,NA,NA,NA
India,TamilNadu,Coimbatore,"SIDCO Kurichi, Coimbatore - TNPCB","18-03-2026 16:00:00",10.942451,76.978996,OZONE,21,31,22
India,TamilNadu,Gummidipoondi,"Anthoni Pillai Nagar, Gummidipoondi - TNPCB","18-03-2026 16:00:00",13.4127,80.1081,PM2.5,25,405,107
India,TamilNadu,Madurai,"Uchapatti, Madurai - TNPCB","18-03-2026 16:00:00",9.865935,78.022669,SO2,NA,NA,NA
India,TamilNadu,Perundurai,"SIPCOT Industrial Park, Perundurai - TNPCB","18-03-2026 16:00:00",11.258242,77.552761,PM10,16,83,43
India,TamilNadu,Perundurai,"SIPCOT Industrial Park, Perundurai - TNPCB","18-03-2026 16:00:00",11.258242,77.552761,NH3,2,22,3
India,TamilNadu,Perundurai,"SIPCOT Industrial Park, Perundurai - TNPCB","18-03-2026 16:00:00",11.258242,77.552761,CO,38,48,43
India,TamilNadu,Thoothukudi,"Meelavittan, Thoothukudi - TNPCB","18-03-2026 16:00:00","8.816428 ",78.099039,PM10,29,67,48
India,Telangana,Hyderabad,"Central University, Hyderabad - TSPCB","18-03-2026 16:00:00",17.460103,78.334361,PM2.5,3,30,16
India,Telangana,Hyderabad,"Central University, Hyderabad - TSPCB","18-03-2026 16:00:00",17.460103,78.334361,CO,11,42,26
India,Telangana,Hyderabad,"ICRISAT Patancheru, Hyderabad - TSPCB","18-03-2026 16:00:00",17.518400,78.278777,SO2,3,22,12
India,Telangana,Hyderabad,"IDA Pashamylaram, Hyderabad - TSPCB","18-03-2026 16:00:00",17.5316895,78.218939,NH3,NA,NA,NA
India,Telangana,Hyderabad,"IDA Pashamylaram, Hyderabad - TSPCB","18-03-2026 16:00:00",17.5316895,78.218939,OZONE,12,19,13
India,Telangana,Hyderabad,"IITH Kandi, Hyderabad - TSPCB","18-03-2026 16:00:00",17.585705,78.126199,NO2,12,18,14
India,Telangana,Hyderabad,"IITH Kandi, Hyderabad - TSPCB","18-03-2026 16:00:00",17.585705,78.126199,CO,22,36,32
India,Telangana,Hyderabad,"Kokapet, Hyderabad - TSPCB","18-03-2026 16:00:00",17.393559,78.339194,NH3,1,2,2
India,Telangana,Hyderabad,"Kompally Municipal Office, Hyderabad - TSPCB","18-03-2026 16:00:00",17.544899,78.486949,SO2,7,14,10
India,Telangana,Hyderabad,"Kompally Municipal Office, Hyderabad - TSPCB","18-03-2026 16:00:00",17.544899,78.486949,OZONE,20,35,28
India,Telangana,Hyderabad,"Nacharam_TSIIC IALA, Hyderabad - TSPCB","18-03-2026 16:00:00",17.429398,78.569354,SO2,10,17,12
India,Uttar_Pradesh,Agra,"Manoharpur, Agra - UPPCB","18-03-2026 16:00:00",27.23711,78.01936,SO2,8,12,9
India,Uttar_Pradesh,Agra,"Manoharpur, Agra - UPPCB","18-03-2026 16:00:00",27.23711,78.01936,CO,17,24,22
India,Uttar_Pradesh,Agra,"Rohta, Agra - UPPCB","18-03-2026 16:00:00",27.106972,78.000111,NO2,16,16,16
India,Uttar_Pradesh,Agra,"Rohta, Agra - UPPCB","18-03-2026 16:00:00",27.106972,78.000111,CO,13,22,18
India,Uttar_Pradesh,Agra,"Sector-3B Avas Vikas Colony, Agra - UPPCB","18-03-2026 16:00:00",27.19412,77.96237,PM2.5,92,306,174
India,Uttar_Pradesh,Agra,"Sector-3B Avas Vikas Colony, Agra - UPPCB","18-03-2026 16:00:00",27.19412,77.96237,CO,2,22,12
India,Uttar_Pradesh,Agra,"Shahjahan Garden, Agra - UPPCB","18-03-2026 16:00:00",27.169338,78.03582,CO,7,14,11
India,Uttar_Pradesh,Agra,"Shastripuram, Agra - UPPCB","18-03-2026 16:00:00",27.19862,77.92066,NO2,39,41,40
India,Uttar_Pradesh,Agra,"Shastripuram, Agra - UPPCB","18-03-2026 16:00:00",27.19862,77.92066,NH3,3,3,3
India,Uttar_Pradesh,Agra,"Shastripuram, Agra - UPPCB","18-03-2026 16:00:00",27.19862,77.92066,SO2,33,67,47
India,TamilNadu,Chennai,"Perungudi, Chennai - TNPCB","18-03-2026 16:00:00",12.9533,80.2357,NH3,1,4,2
India,TamilNadu,Chennai,"Perungudi, Chennai - TNPCB","18-03-2026 16:00:00",12.9533,80.2357,SO2,3,9,5
India,TamilNadu,Chennai,"Perungudi, Chennai - TNPCB","18-03-2026 16:00:00",12.9533,80.2357,CO,24,56,40
India,TamilNadu,Chennai,"Royapuram, Chennai - TNPCB","18-03-2026 16:00:00",13.1036,80.2909,CO,26,58,30
India,TamilNadu,Chennai,"Velachery Res. Area, Chennai - CPCB","18-03-2026 16:00:00",13.0052189,80.2398125,PM10,NA,NA,NA
India,TamilNadu,Coimbatore,"PSG College of Arts and Science, Coimbatore - TNPCB","18-03-2026 16:00:00",11.0328,77.0349,PM2.5,14,56,33
India,TamilNadu,Coimbatore,"PSG College of Arts and Science, Coimbatore - TNPCB","18-03-2026 16:00:00",11.0328,77.0349,PM10,12,44,27
India,Telangana,Hyderabad,"Ramachandrapuram, Hyderabad - TSPCB","18-03-2026 16:00:00",17.528544,78.286195,CO,16,26,20
India,Telangana,Hyderabad,"Sanathnagar, Hyderabad - TSPCB","18-03-2026 16:00:00",17.4559458,78.4332152,CO,35,54,48
India,Telangana,Hyderabad,"Somajiguda, Hyderabad - TSPCB","18-03-2026 16:00:00",17.417094,78.457437,NO2,14,17,16
India,Telangana,Hyderabad,"Zoo Park, Hyderabad - TSPCB","18-03-2026 16:00:00",17.349694,78.451437,SO2,1,2,2
India,Telangana,Hyderabad,"Zoo Park, Hyderabad - TSPCB","18-03-2026 16:00:00",17.349694,78.451437,OZONE,22,26,24
India,Tripura,Agartala,"Bardowali, Agartala - Tripura SPCB","18-03-2026 16:00:00",23.8175497,91.2726974,NH3,3,7,5
India,Uttar_Pradesh,Ghaziabad,"Indirapuram, Ghaziabad - UPPCB","18-03-2026 16:00:00",28.646233,77.358075,PM2.5,88,346,255
India,Uttar_Pradesh,Ghaziabad,"Indirapuram, Ghaziabad - UPPCB","18-03-2026 16:00:00",28.646233,77.358075,NH3,15,19,16
India,Uttar_Pradesh,Ghaziabad,"Indirapuram, Ghaziabad - UPPCB","18-03-2026 16:00:00",28.646233,77.358075,OZONE,13,70,40
India,Uttar_Pradesh,Ghaziabad,"Loni, Ghaziabad - UPPCB","18-03-2026 16:00:00",28.757294,77.278792,CO,43,101,68
India,Uttar_Pradesh,Ghaziabad,"Sanjay Nagar, Ghaziabad - UPPCB","18-03-2026 16:00:00",28.685382,77.453839,PM10,143,344,186
India,Uttar_Pradesh,Ghaziabad,"Sanjay Nagar, Ghaziabad - UPPCB","18-03-2026 16:00:00",28.685382,77.453839,NO2,38,79,62
India,Uttar_Pradesh,Bulandshahr,"Yamunapuram, Bulandshahr - UPPCB","18-03-2026 16:00:00",28.406963,77.849831,NH3,8,14,10
India,Uttar_Pradesh,Bulandshahr,"Yamunapuram, Bulandshahr - UPPCB","18-03-2026 16:00:00",28.406963,77.849831,CO,14,80,38
India,Uttar_Pradesh,Bulandshahr,"Yamunapuram, Bulandshahr - UPPCB","18-03-2026 16:00:00",28.406963,77.849831,OZONE,4,74,57
India,Uttar_Pradesh,Firozabad,"Nagla Bhau, Firozabad - UPPCB","18-03-2026 16:00:00",27.168897,78.376960,PM10,44,143,84
India,Uttar_Pradesh,"Greater Noida","Knowledge Park - III, Greater Noida - UPPCB","18-03-2026 16:00:00",28.47272,77.482000,PM10,120,340,205
India,Uttar_Pradesh,"Greater Noida","Knowledge Park - III, Greater Noida - UPPCB","18-03-2026 16:00:00",28.47272,77.482000,NO2,14,109,66
India,Uttar_Pradesh,"Greater Noida","Knowledge Park - III, Greater Noida - UPPCB","18-03-2026 16:00:00",28.47272,77.482000,SO2,10,29,18
India,Uttar_Pradesh,"Greater Noida","Knowledge Park - III, Greater Noida - UPPCB","18-03-2026 16:00:00",28.47272,77.482000,CO,33,60,35
India,Uttar_Pradesh,Baghpat,"Sardar Patel Inter College, Baghpat - UPPCB","18-03-2026 16:00:00",28.964949,77.278761,PM2.5,63,332,239
India,Uttar_Pradesh,Kanpur,"Nehru Nagar, Kanpur - UPPCB","18-03-2026 16:00:00",26.4703136,80.3229863,NO2,43,51,47
India,Uttar_Pradesh,Khurja,"Kalindi Kunj, Khurja - UPPCB","18-03-2026 16:00:00",28.2348927,77.8683002,PM10,66,213,125
India,Uttar_Pradesh,Lucknow,"B R Ambedkar University, Lucknow - UPPCB","18-03-2026 16:00:00",26.766433,80.927299,NO2,11,12,12
India,Uttar_Pradesh,Lucknow,"B R Ambedkar University, Lucknow - UPPCB","18-03-2026 16:00:00",26.766433,80.927299,NH3,4,4,4
India,Uttar_Pradesh,Lucknow,"B R Ambedkar University, Lucknow - UPPCB","18-03-2026 16:00:00",26.766433,80.927299,SO2,20,24,22
India,Uttar_Pradesh,Lucknow,"B R Ambedkar University, Lucknow - UPPCB","18-03-2026 16:00:00",26.766433,80.927299,CO,8,16,13
India,Uttar_Pradesh,Lucknow,"B R Ambedkar University, Lucknow - UPPCB","18-03-2026 16:00:00",26.766433,80.927299,OZONE,1,68,50
India,Uttar_Pradesh,Lucknow,"Gomti Nagar, Lucknow - UPPCB","18-03-2026 16:00:00",26.868120,81.005119,NO2,8,11,9
India,Uttar_Pradesh,Lucknow,"Gomti Nagar, Lucknow - UPPCB","18-03-2026 16:00:00",26.868120,81.005119,SO2,10,12,11
India,Uttar_Pradesh,Lucknow,"Kendriya Vidyalaya, Lucknow - CPCB","18-03-2026 16:00:00",26.906111,80.948222,NH3,9,16,13
India,Uttar_Pradesh,Lucknow,"Kendriya Vidyalaya, Lucknow - CPCB","18-03-2026 16:00:00",26.906111,80.948222,OZONE,11,59,46
India,Uttar_Pradesh,Lucknow,"Kukrail Picnic Spot-1, Lucknow - UPPCB","18-03-2026 16:00:00",26.90723,80.98579,NH3,6,6,6
India,Uttar_Pradesh,Lucknow,"Kukrail Picnic Spot-1, Lucknow - UPPCB","18-03-2026 16:00:00",26.90723,80.98579,SO2,17,24,22
India,Uttar_Pradesh,Lucknow,"Kukrail Picnic Spot-1, Lucknow - UPPCB","18-03-2026 16:00:00",26.90723,80.98579,CO,7,13,11
India,Uttar_Pradesh,Lucknow,"Lalbagh, Lucknow - CPCB","18-03-2026 16:00:00",26.8458805,80.9365541,PM2.5,52,175,109
India,Uttar_Pradesh,Lucknow,"Lalbagh, Lucknow - CPCB","18-03-2026 16:00:00",26.8458805,80.9365541,NO2,34,38,36
India,Uttar_Pradesh,Lucknow,"Lalbagh, Lucknow - CPCB","18-03-2026 16:00:00",26.8458805,80.9365541,NH3,12,19,16
India,Uttar_Pradesh,Hapur,"Anand Vihar, Hapur - UPPCB","18-03-2026 16:00:00",28.725645,77.749675,PM10,84,226,153
India,Uttar_Pradesh,Hapur,"Anand Vihar, Hapur - UPPCB","18-03-2026 16:00:00",28.725645,77.749675,NO2,7,25,18
India,Uttar_Pradesh,Hapur,"Anand Vihar, Hapur - UPPCB","18-03-2026 16:00:00",28.725645,77.749675,CO,27,82,49
India,Uttar_Pradesh,Jhansi,"Shivaji Nagar, Jhansi - UPPCB","18-03-2026 16:00:00",25.4547,78.6039,NO2,6,6,6
India,Uttar_Pradesh,Kanpur,"FTI Kidwai Nagar, Kanpur - UPPCB","18-03-2026 16:00:00",26.428282,80.327067,PM10,62,241,106
India,Uttar_Pradesh,Kanpur,"FTI Kidwai Nagar, Kanpur - UPPCB","18-03-2026 16:00:00",26.428282,80.327067,NO2,26,27,27
India,Uttar_Pradesh,Kanpur,"NSI Kalyanpur, Kanpur - UPPCB","18-03-2026 16:00:00",26.509954,80.249612,SO2,13,52,20
India,Uttar_Pradesh,Moradabad,"Transport Nagar, Moradabad - UPPCB","18-03-2026 16:00:00",28.802625,78.753728,NO2,29,30,29
India,Uttar_Pradesh,Moradabad,"Transport Nagar, Moradabad - UPPCB","18-03-2026 16:00:00",28.802625,78.753728,OZONE,27,46,36
India,Uttar_Pradesh,Muzaffarnagar,"New Mandi, Muzaffarnagar - UPPCB","18-03-2026 16:00:00",29.4723508,77.7194031,PM2.5,42,357,219
India,Uttar_Pradesh,Noida,"Sector - 125, Noida - UPPCB","18-03-2026 16:00:00",28.5447608,77.3231257,PM10,144,383,225
India,Uttar_Pradesh,Noida,"Sector - 125, Noida - UPPCB","18-03-2026 16:00:00",28.5447608,77.3231257,CO,4,102,28
India,Uttar_Pradesh,Noida,"Sector - 125, Noida - UPPCB","18-03-2026 16:00:00",28.5447608,77.3231257,OZONE,9,203,122
India,Uttar_Pradesh,Noida,"Sector-1, Noida - UPPCB","18-03-2026 16:00:00",28.5898,77.3101,PM2.5,98,416,276
India,Uttar_Pradesh,Noida,"Sector-1, Noida - UPPCB","18-03-2026 16:00:00",28.5898,77.3101,NO2,75,103,86
India,Uttar_Pradesh,Noida,"Sector-1, Noida - UPPCB","18-03-2026 16:00:00",28.5898,77.3101,CO,42,74,63
India,Uttar_Pradesh,Noida,"Sector-116, Noida - UPPCB","18-03-2026 16:00:00",28.569230,77.393848,PM2.5,98,350,234
India,Uttar_Pradesh,Noida,"Sector-116, Noida - UPPCB","18-03-2026 16:00:00",28.569230,77.393848,PM10,160,302,204
India,Uttar_Pradesh,Noida,"Sector-116, Noida - UPPCB","18-03-2026 16:00:00",28.569230,77.393848,NO2,45,90,66
India,Uttar_Pradesh,Noida,"Sector-116, Noida - UPPCB","18-03-2026 16:00:00",28.569230,77.393848,CO,30,86,55
India,Uttar_Pradesh,Prayagraj,"Jhunsi, Prayagraj - UPPCB","18-03-2026 16:00:00",25.425602,81.917152,SO2,26,32,32
India,Uttar_Pradesh,Prayagraj,"Jhunsi, Prayagraj - UPPCB","18-03-2026 16:00:00",25.425602,81.917152,OZONE,18,32,27
India,Uttar_Pradesh,Prayagraj,"Motilal Nehru NIT, Prayagraj - UPPCB","18-03-2026 16:00:00",25.494,81.863,PM10,47,123,88
India,Uttar_Pradesh,Prayagraj,"Nagar Nigam, Prayagraj - UPPCB","18-03-2026 16:00:00","25.44919916 ","81.82735986 ",NO2,5,5,5
India,Uttar_Pradesh,Prayagraj,"Nagar Nigam, Prayagraj - UPPCB","18-03-2026 16:00:00","25.44919916 ","81.82735986 ",CO,21,88,29
India,Uttar_Pradesh,Meerut,"Ganga Nagar, Meerut - UPPCB","18-03-2026 16:00:00",28.999264,77.7590354,SO2,17,24,20
India,Uttar_Pradesh,Meerut,"Jai Bhim Nagar, Meerut - UPPCB","18-03-2026 16:00:00",28.9535882,77.7622941,PM10,109,261,149
India,Uttar_Pradesh,Meerut,"Jai Bhim Nagar, Meerut - UPPCB","18-03-2026 16:00:00",28.9535882,77.7622941,NH3,6,14,10
India,Uttar_Pradesh,Moradabad,"Employment Office, Moradabad - UPPCB","18-03-2026 16:00:00",28.88528,78.73880,PM10,63,154,106
India,Uttar_Pradesh,Moradabad,"Buddhi Vihar, Moradabad - UPPCB","18-03-2026 16:00:00",28.83526,78.74460,NO2,28,29,29
India,Uttar_Pradesh,Varanasi,"Ardhali Bazar, Varanasi - UPPCB","18-03-2026 16:00:00",25.3505986,82.9083074,PM10,49,133,94
India,Uttar_Pradesh,Varanasi,"Ardhali Bazar, Varanasi - UPPCB","18-03-2026 16:00:00",25.3505986,82.9083074,CO,6,26,17
India,Uttar_Pradesh,Varanasi,"Bhelupur, Varanasi - UPPCB","18-03-2026 16:00:00",25.301778,82.996789,PM10,41,124,65
India,Uttar_Pradesh,Varanasi,"Bhelupur, Varanasi - UPPCB","18-03-2026 16:00:00",25.301778,82.996789,CO,10,56,14
India,Uttar_Pradesh,Varanasi,"IESD Banaras Hindu University, Varanasi - UPPCB","18-03-2026 16:00:00",25.262326,82.995408,SO2,30,35,32
India,Uttar_Pradesh,Varanasi,"IESD Banaras Hindu University, Varanasi - UPPCB","18-03-2026 16:00:00",25.262326,82.995408,CO,2,20,7
India,Uttar_Pradesh,Varanasi,"Maldahiya, Varanasi - UPPCB","18-03-2026 16:00:00",25.32393,82.99687,PM2.5,14,191,48
India,Uttar_Pradesh,Vrindavan,"Omex Eternity, Vrindavan - UPPCB","18-03-2026 16:00:00",27.5714090,77.6557570,PM2.5,28,164,86
India,Uttar_Pradesh,Vrindavan,"Omex Eternity, Vrindavan - UPPCB","18-03-2026 16:00:00",27.5714090,77.6557570,NO2,27,27,27
India,Uttar_Pradesh,Vrindavan,"Omex Eternity, Vrindavan - UPPCB","18-03-2026 16:00:00",27.5714090,77.6557570,NH3,2,9,8
India,Uttar_Pradesh,Vrindavan,"Omex Eternity, Vrindavan - UPPCB","18-03-2026 16:00:00",27.5714090,77.6557570,SO2,13,34,18
India,Uttar_Pradesh,Vrindavan,"Omex Eternity, Vrindavan - UPPCB","18-03-2026 16:00:00",27.5714090,77.6557570,OZONE,15,16,15
India,Uttarakhand,Dehradun,"Doon University, Dehradun - UKPCB","18-03-2026 16:00:00",30.269444,78.044167,PM10,35,92,61
India,West_Bengal,Asansol,"Mahabir Colliery, Asansol - WBPCB","18-03-2026 16:00:00",23.6181830,87.1057180,NH3,1,2,1
India,West_Bengal,Asansol,"Mahabir Colliery, Asansol - WBPCB","18-03-2026 16:00:00",23.6181830,87.1057180,CO,15,62,33
India,West_Bengal,Asansol,"Trivenidevi Bhalotia College, Asansol - WBPCB","18-03-2026 16:00:00",23.616515,87.119133,PM10,32,76,48
India,West_Bengal,Asansol,"Trivenidevi Bhalotia College, Asansol - WBPCB","18-03-2026 16:00:00",23.616515,87.119133,SO2,7,19,13
India,West_Bengal,Asansol,"Trivenidevi Bhalotia College, Asansol - WBPCB","18-03-2026 16:00:00",23.616515,87.119133,OZONE,7,70,48
India,West_Bengal,Barrackpore,"SVSPA Campus, Barrackpore - WBPCB","18-03-2026 16:00:00",22.7605581,88.3617589,NO2,10,26,17
India,West_Bengal,Barrackpore,"SVSPA Campus, Barrackpore - WBPCB","18-03-2026 16:00:00",22.7605581,88.3617589,NH3,4,5,5
India,Uttarakhand,Dehradun,"Doon University, Dehradun - UKPCB","18-03-2026 16:00:00",30.269444,78.044167,SO2,NA,NA,NA
India,Uttarakhand,Rishikesh,"Shivaji Nagar, Rishikesh - UKPCB","18-03-2026 16:00:00",30.075911,78.2859547,NH3,2,24,11
India,West_Bengal,Asansol,"Asansol Court Area, Asansol - WBPCB","18-03-2026 16:00:00",23.685297,86.945968,PM10,32,97,68
India,West_Bengal,Asansol,"Asansol Court Area, Asansol - WBPCB","18-03-2026 16:00:00",23.685297,86.945968,NO2,16,28,23
India,West_Bengal,Asansol,"Evelyn Lodge, Asansol - WBPCB","18-03-2026 16:00:00",23.6979360,86.9443950,NO2,10,35,21
India,West_Bengal,Asansol,"Evelyn Lodge, Asansol - WBPCB","18-03-2026 16:00:00",23.6979360,86.9443950,SO2,26,27,26
India,West_Bengal,Kolkata,"Ballygunge, Kolkata - WBPCB","18-03-2026 16:00:00",22.5367507,88.3638022,NH3,8,12,10
India,West_Bengal,Kolkata,"Ballygunge, Kolkata - WBPCB","18-03-2026 16:00:00",22.5367507,88.3638022,OZONE,8,24,18
India,West_Bengal,Kolkata,"Bidhannagar, Kolkata - WBPCB","18-03-2026 16:00:00",22.58157048,88.41002457,SO2,8,14,10
India,West_Bengal,Kolkata,"Fort William, Kolkata - WBPCB","18-03-2026 16:00:00",22.556640,88.342674,NO2,22,30,26
India,West_Bengal,Howrah,"Dasnagar, Howrah - WBPCB","18-03-2026 16:00:00",22.6025571,88.3105664,SO2,3,59,14
India,West_Bengal,Howrah,"Padmapukur, Howrah - WBPCB","18-03-2026 16:00:00",22.5687319,88.2797276,CO,60,80,74
India,West_Bengal,Kolkata,"Ballygunge, Kolkata - WBPCB","18-03-2026 16:00:00",22.5367507,88.3638022,PM2.5,19,56,37
India,West_Bengal,Kolkata,"Fort William, Kolkata - WBPCB","18-03-2026 16:00:00",22.556640,88.342674,SO2,5,29,11
India,West_Bengal,Kolkata,"Rabindra Bharati University, Kolkata - WBPCB","18-03-2026 16:00:00",22.627847,88.380669,NO2,30,65,50
India,West_Bengal,Kolkata,"Rabindra Bharati University, Kolkata - WBPCB","18-03-2026 16:00:00",22.627847,88.380669,CO,24,38,32
India,West_Bengal,Kolkata,"Victoria, Kolkata - WBPCB","18-03-2026 16:00:00",22.5448082,88.3403691,NH3,4,5,4
India,West_Bengal,Siliguri,"Ward-32 Bapupara, Siliguri - WBPCB","18-03-2026 16:00:00",26.6879226,88.4152495,OZONE,11,78,64
India,West_Bengal,Howrah,"Botanical Garden, Howrah - WBPCB","18-03-2026 16:00:00",22.554954,88.292568,OZONE,11,46,34
India,West_Bengal,Howrah,"Dasnagar, Howrah - WBPCB","18-03-2026 16:00:00",22.6025571,88.3105664,PM10,25,68,43
India,West_Bengal,Durgapur,"Womens College_City Center, Durgapur - WBPCB","18-03-2026 16:00:00",23.549395,87.300496,NH3,2,4,3
India,Bihar,Begusarai,"Lohiyanagar, Begusarai - BSPCB","18-03-2026 16:00:00",25.42742023,86.13886079,PM2.5,35,170,80
India,Bihar,Begusarai,"Lohiyanagar, Begusarai - BSPCB","18-03-2026 16:00:00",25.42742023,86.13886079,PM10,49,104,77
India,Bihar,Begusarai,"Lohiyanagar, Begusarai - BSPCB","18-03-2026 16:00:00",25.42742023,86.13886079,NO2,10,17,13
India,Bihar,Begusarai,"Lohiyanagar, Begusarai - BSPCB","18-03-2026 16:00:00",25.42742023,86.13886079,SO2,22,27,24
India,Bihar,Begusarai,"Lohiyanagar, Begusarai - BSPCB","18-03-2026 16:00:00",25.42742023,86.13886079,OZONE,36,55,47
India,Bihar,Bettiah,"Kamalnath Nagar, Bettiah - BSPCB","18-03-2026 16:00:00",26.80365,84.51954,PM10,17,101,51
India,Bihar,Bettiah,"Kamalnath Nagar, Bettiah - BSPCB","18-03-2026 16:00:00",26.80365,84.51954,SO2,13,19,16
India,Bihar,Bhagalpur,"DM Office_Kachari Chowk, Bhagalpur - BSPCB","18-03-2026 16:00:00",25.251013,86.989001,PM10,51,200,131
India,Bihar,Bhagalpur,"Mayaganj, Bhagalpur - BSPCB","18-03-2026 16:00:00",25.265194,87.012947,NO2,6,8,7
India,Bihar,Bhagalpur,"Mayaganj, Bhagalpur - BSPCB","18-03-2026 16:00:00",25.265194,87.012947,NH3,6,8,7
India,Bihar,"Bihar Sharif","D M Colony, Bihar Sharif - BSPCB","18-03-2026 16:00:00",25.204762,85.514960,PM10,NA,NA,NA
India,Bihar,"Bihar Sharif","D M Colony, Bihar Sharif - BSPCB","18-03-2026 16:00:00",25.204762,85.514960,NO2,9,10,9
India,Bihar,"Bihar Sharif","D M Colony, Bihar Sharif - BSPCB","18-03-2026 16:00:00",25.204762,85.514960,SO2,10,10,10
India,Bihar,"Bihar Sharif","D M Colony, Bihar Sharif - BSPCB","18-03-2026 16:00:00",25.204762,85.514960,CO,37,120,48
India,Bihar,"Bihar Sharif","D M Colony, Bihar Sharif - BSPCB","18-03-2026 16:00:00",25.204762,85.514960,OZONE,1,2,2
India,Andhra_Pradesh,Guntur,"Rajendra Nagar North, Guntur - APPCB","18-03-2026 16:00:00",16.316553,80.413302,NH3,4,5,4
India,Andhra_Pradesh,Kadapa,"Yerramukkapalli, Kadapa - APPCB","18-03-2026 16:00:00",14.465052,78.824187,NO2,19,25,20
India,Andhra_Pradesh,Kadapa,"Yerramukkapalli, Kadapa - APPCB","18-03-2026 16:00:00",14.465052,78.824187,CO,6,20,15
India,Andhra_Pradesh,Kadapa,"Yerramukkapalli, Kadapa - APPCB","18-03-2026 16:00:00",14.465052,78.824187,OZONE,21,27,24
India,Andhra_Pradesh,Machilipatnam,"Srinivas Nagar Colony, Machilipatnam - APPCB","18-03-2026 16:00:00",16.186555,81.13219,PM2.5,41,93,59
India,Andhra_Pradesh,Machilipatnam,"Srinivas Nagar Colony, Machilipatnam - APPCB","18-03-2026 16:00:00",16.186555,81.13219,NH3,3,6,4
India,Andhra_Pradesh,Machilipatnam,"Srinivas Nagar Colony, Machilipatnam - APPCB","18-03-2026 16:00:00",16.186555,81.13219,SO2,15,25,17
India,Andhra_Pradesh,Machilipatnam,"Srinivas Nagar Colony, Machilipatnam - APPCB","18-03-2026 16:00:00",16.186555,81.13219,OZONE,17,36,27
India,Andhra_Pradesh,Tirumala,"Toll Gate, Tirumala - APPCB","18-03-2026 16:00:00",13.67,79.35,SO2,2,14,5
India,Andhra_Pradesh,Tirumala,"Toll Gate, Tirumala - APPCB","18-03-2026 16:00:00",13.67,79.35,CO,16,26,18
India,Andhra_Pradesh,Tirupati,"Vaikuntapuram, Tirupati - APPCB","18-03-2026 16:00:00",13.615387,79.409230,NO2,27,36,33
India,Andhra_Pradesh,Tirupati,"Vaikuntapuram, Tirupati - APPCB","18-03-2026 16:00:00",13.615387,79.409230,SO2,8,25,12
India,Bihar,Patna,"Samanpura, Patna - BSPCB","18-03-2026 16:00:00",25.596727,85.085624,OZONE,33,118,95
India,Bihar,Purnia,"Mariam Nagar, Purnia - BSPCB","18-03-2026 16:00:00",25.366336,87.117468,PM2.5,62,98,80
India,Bihar,Purnia,"Mariam Nagar, Purnia - BSPCB","18-03-2026 16:00:00",25.366336,87.117468,NO2,5,6,6
India,Bihar,Purnia,"Mariam Nagar, Purnia - BSPCB","18-03-2026 16:00:00",25.366336,87.117468,CO,50,58,55
India,Bihar,Rajgir,"Dangi Tola, Rajgir - BSPCB","18-03-2026 16:00:00",25.03280,85.41948,CO,36,48,40
India,Bihar,Saharsa,"Police Line, Saharsa - BSPCB","18-03-2026 16:00:00",25.892357,86.590325,PM10,57,226,124
India,Bihar,Samastipur,"DM Office_Kasipur, Samastipur - BSPCB","18-03-2026 16:00:00",25.859655,85.77944,PM10,38,179,104
India,Bihar,Sasaram,"Dada Peer, Sasaram - BSPCB","18-03-2026 16:00:00",24.952822,84.002396,SO2,2,5,4
India,Bihar,Chhapra,"Darshan Nagar, Chhapra - BSPCB","18-03-2026 16:00:00",25.7808257,84.7446768,NO2,4,6,5
India,Bihar,Gaya,"Kareemganj, Gaya - BSPCB","18-03-2026 16:00:00",24.792403,84.992416,PM2.5,NA,NA,NA
India,Bihar,Gaya,"SFTI Kusdihra, Gaya - BSPCB","18-03-2026 16:00:00",24.762518,84.982348,NO2,20,27,23
India,Bihar,Gaya,"SFTI Kusdihra, Gaya - BSPCB","18-03-2026 16:00:00",24.762518,84.982348,NH3,3,5,4
India,Bihar,Gaya,"SFTI Kusdihra, Gaya - BSPCB","18-03-2026 16:00:00",24.762518,84.982348,OZONE,10,74,54
India,Bihar,Hajipur,"Industrial Area, Hajipur - BSPCB","18-03-2026 16:00:00",25.697189,85.245900,PM10,92,176,138
India,Bihar,Hajipur,"Industrial Area, Hajipur - BSPCB","18-03-2026 16:00:00",25.697189,85.245900,NH3,15,19,17
India,Bihar,Katihar,"Mirchaibari, Katihar - BSPCB","18-03-2026 16:00:00",25.560083,87.553265,SO2,14,22,18
India,Bihar,Katihar,"Mirchaibari, Katihar - BSPCB","18-03-2026 16:00:00",25.560083,87.553265,CO,58,91,71
India,Bihar,Manguraha,"Forest Rest House, Manguraha - BSPCB","18-03-2026 16:00:00",27.308328,84.531742,SO2,14,16,16
India,Bihar,Motihari,"Gandak Colony, Motihari - BSPCB","18-03-2026 16:00:00",26.63086,84.90051,NH3,3,3,3
India,Bihar,Motihari,"Gandak Colony, Motihari - BSPCB","18-03-2026 16:00:00",26.63086,84.90051,SO2,2,3,2
India,Bihar,Munger,"Town Hall, Munger - BSPCB","18-03-2026 16:00:00",25.376776,86.471523,NO2,4,5,5
India,Bihar,Munger,"Town Hall, Munger - BSPCB","18-03-2026 16:00:00",25.376776,86.471523,CO,22,33,27
India,Bihar,Munger,"Town Hall, Munger - BSPCB","18-03-2026 16:00:00",25.376776,86.471523,OZONE,8,15,10
India,Bihar,Muzaffarpur,"Buddha Colony, Muzaffarpur - BSPCB","18-03-2026 16:00:00",26.11442,85.39813,PM10,86,232,121
India,Bihar,Muzaffarpur,"MIT-Daudpur Kothi, Muzaffarpur - BSPCB","18-03-2026 16:00:00",26.1403345,85.3650192,NH3,1,2,1
India,Bihar,Muzaffarpur,"MIT-Daudpur Kothi, Muzaffarpur - BSPCB","18-03-2026 16:00:00",26.1403345,85.3650192,OZONE,7,72,49
India,Assam,Nalbari,"Bata Chowk, Nalbari - PCBA","18-03-2026 16:00:00",26.446912,91.439057,NO2,14,15,14
India,Assam,Silchar,"Tarapur, Silchar - PCBA","18-03-2026 16:00:00",24.82827,92.79525,PM2.5,27,63,44
India,Assam,Silchar,"Tarapur, Silchar - PCBA","18-03-2026 16:00:00",24.82827,92.79525,PM10,35,58,50
India,Assam,Sivasagar,"Girls College, Sivasagar - PCBA","18-03-2026 16:00:00",26.987634,94.636574,PM2.5,18,25,20
India,Assam,Sivasagar,"Girls College, Sivasagar - PCBA","18-03-2026 16:00:00",26.987634,94.636574,CO,14,28,18
India,Bihar,Araria,"Kharahiya Basti, Araria - BSPCB","18-03-2026 16:00:00",26.146529,87.454184,PM10,10,239,63
India,Bihar,Arrah,"New DM Office, Arrah - BSPCB","18-03-2026 16:00:00",25.5626095,84.663264,PM10,NA,NA,NA
India,Bihar,Aurangabad,"Gurdeo Nagar, Aurangabad - BSPCB","18-03-2026 16:00:00",24.75746,84.366208,PM2.5,3,43,19
India,Assam,Guwahati,"IITG, Guwahati - PCBA","18-03-2026 16:00:00",26.2028636,91.70046436,PM10,22,103,64
India,Assam,Guwahati,"LGBI Airport, Guwahati - PCBA","18-03-2026 16:00:00",26.10887,91.589544,PM10,47,125,89
India,Assam,Guwahati,"LGBI Airport, Guwahati - PCBA","18-03-2026 16:00:00",26.10887,91.589544,SO2,8,15,12
India,Assam,Guwahati,"LGBI Airport, Guwahati - PCBA","18-03-2026 16:00:00",26.10887,91.589544,CO,18,103,94
India,Assam,Guwahati,"Pan Bazaar, Guwahati - PCBA","18-03-2026 16:00:00",26.187500,91.744194,PM10,41,104,61
India,Assam,Guwahati,"Pan Bazaar, Guwahati - PCBA","18-03-2026 16:00:00",26.187500,91.744194,NH3,1,1,1
India,Assam,Guwahati,"Railway Colony, Guwahati - PCBA","18-03-2026 16:00:00",26.181742,91.78063,SO2,1,6,3
India,Assam,Guwahati,"Railway Colony, Guwahati - PCBA","18-03-2026 16:00:00",26.181742,91.78063,CO,NA,NA,NA
India,Assam,Nagaon,"Christianpatty, Nagaon - PCBA","18-03-2026 16:00:00",26.349082,92.68449,NH3,3,4,4
India,Assam,Nagaon,"Christianpatty, Nagaon - PCBA","18-03-2026 16:00:00",26.349082,92.68449,SO2,6,13,12
India,Andhra_Pradesh,Vijayawada,"HB Colony, Vijayawada - APPCB","18-03-2026 16:00:00",16.536107,80.594233,NH3,3,5,5
India,Andhra_Pradesh,Vijayawada,"Kanuru, Vijayawada - APPCB","18-03-2026 16:00:00",16.486692,80.699436,PM2.5,43,344,73
India,Andhra_Pradesh,Vijayawada,"Kanuru, Vijayawada - APPCB","18-03-2026 16:00:00",16.486692,80.699436,PM10,40,230,63
India,Andhra_Pradesh,Vijayawada,"Kanuru, Vijayawada - APPCB","18-03-2026 16:00:00",16.486692,80.699436,NO2,8,28,11
India,Andhra_Pradesh,Vijayawada,"Rajiv Gandhi Park, Vijayawada - APPCB","18-03-2026 16:00:00",16.509717,80.612222,PM10,69,111,88
India,Andhra_Pradesh,Vijayawada,"Rajiv Gandhi Park, Vijayawada - APPCB","18-03-2026 16:00:00",16.509717,80.612222,NO2,13,29,21
India,Andhra_Pradesh,Vijayawada,"Rajiv Gandhi Park, Vijayawada - APPCB","18-03-2026 16:00:00",16.509717,80.612222,NH3,6,8,7
India,Andhra_Pradesh,Vijayawada,"Rajiv Nagar, Vijayawada - APPCB","18-03-2026 16:00:00",16.554731,80.649110,NH3,3,5,5
India,Andhra_Pradesh,Visakhapatnam,"GVM Corporation, Visakhapatnam - APPCB","18-03-2026 16:00:00",17.72,83.3,NH3,3,3,3
India,Andhra_Pradesh,Anantapur,"Gulzarpet, Anantapur - APPCB","18-03-2026 16:00:00",14.675886,77.593027,NO2,19,33,25
India,Andhra_Pradesh,Anantapur,"Gulzarpet, Anantapur - APPCB","18-03-2026 16:00:00",14.675886,77.593027,NH3,6,8,6
India,Andhra_Pradesh,Anantapur,"Gulzarpet, Anantapur - APPCB","18-03-2026 16:00:00",14.675886,77.593027,SO2,11,19,17
India,Andhra_Pradesh,Chittoor,"Gangineni Cheruvu, Chittoor - APPCB","18-03-2026 16:00:00",13.204880,79.097889,PM10,44,72,53
India,Andhra_Pradesh,Eluru,"District Court, Eluru - APPCB","18-03-2026 16:00:00",16.711754,81.092095,NH3,2,3,3
India,Bihar,Patna,"DRM Office Danapur, Patna - BSPCB","18-03-2026 16:00:00",25.586562,85.043586,OZONE,25,34,30
India,Bihar,Patna,"Rajbansi Nagar, Patna - BSPCB","18-03-2026 16:00:00",25.599486,85.113666,NO2,10,12,11
India,Bihar,Patna,"Rajbansi Nagar, Patna - BSPCB","18-03-2026 16:00:00",25.599486,85.113666,NH3,4,4,4
India,Bihar,Patna,"Samanpura, Patna - BSPCB","18-03-2026 16:00:00",25.596727,85.085624,PM10,103,201,140
India,Bihar,Patna,"Samanpura, Patna - BSPCB","18-03-2026 16:00:00",25.596727,85.085624,CO,82,112,94
India,Bihar,Siwan,"Chitragupta Nagar, Siwan - BSPCB","18-03-2026 16:00:00",26.2271665,84.3570427,OZONE,12,12,12
India,Chandigarh,Chandigarh,"Sector 22, Chandigarh - CPCC","18-03-2026 16:00:00",30.735567,76.775714,OZONE,3,128,55
India,Chandigarh,Chandigarh,"Sector-25, Chandigarh - CPCC","18-03-2026 16:00:00",30.751462,76.762879,NO2,NA,NA,NA
India,Chandigarh,Chandigarh,"Sector-25, Chandigarh - CPCC","18-03-2026 16:00:00",30.751462,76.762879,NH3,NA,NA,NA
India,Chandigarh,Chandigarh,"Sector-25, Chandigarh - CPCC","18-03-2026 16:00:00",30.751462,76.762879,SO2,NA,NA,NA
India,Chandigarh,Chandigarh,"Sector-25, Chandigarh - CPCC","18-03-2026 16:00:00",30.751462,76.762879,CO,10,49,28
India,Chandigarh,Chandigarh,"Sector-53, Chandigarh - CPCC","18-03-2026 16:00:00",30.719859,76.738637,SO2,6,7,6
India,Chhattisgarh,Bhilai,"32Bungalows, Bhilai - CECB","18-03-2026 16:00:00",21.194815,81.314770,CO,10,24,15
India,Chhattisgarh,Bhilai,"Civic Center, Bhilai - Bhilai Steel Plant","18-03-2026 16:00:00",21.185571,81.343175,PM10,18,32,23
India,Chhattisgarh,Bhilai,"Civic Center, Bhilai - Bhilai Steel Plant","18-03-2026 16:00:00",21.185571,81.343175,NH3,3,3,3
India,Chhattisgarh,Bhilai,"Civic Center, Bhilai - Bhilai Steel Plant","18-03-2026 16:00:00",21.185571,81.343175,SO2,7,9,8
India,Chhattisgarh,Bhilai,"Hathkhoj, Bhilai - CECB","18-03-2026 16:00:00",21.224231,81.408350,PM10,24,54,36
India,Delhi,Delhi,"CRRI Mathura Road, Delhi - IMD","18-03-2026 16:00:00",28.5512005,77.2735737,OZONE,2,160,155
India,Delhi,Delhi,"Cantonment Area, Delhi - DPCC ","18-03-2026 16:00:00","28.594169 ","77.125100 ",PM2.5,24,65,43
India,Delhi,Delhi,"Chandni Chowk, Delhi - IITM","18-03-2026 16:00:00",28.656756,77.227234,PM10,162,212,183
India,Delhi,Delhi,"Commonwealth Sports Complex, Delhi - DPCC","18-03-2026 16:00:00","28.615828 ","77.271992 ",PM10,145,274,184
India,Delhi,Delhi,"Commonwealth Sports Complex, Delhi - DPCC","18-03-2026 16:00:00","28.615828 ","77.271992 ",NO2,30,60,42
India,Delhi,Delhi,"DTU, Delhi - CPCB","18-03-2026 16:00:00",28.7500499,77.1112615,PM10,72,180,125
India,Delhi,Delhi,"DTU, Delhi - CPCB","18-03-2026 16:00:00",28.7500499,77.1112615,NO2,23,70,40
India,Delhi,Delhi,"DTU, Delhi - CPCB","18-03-2026 16:00:00",28.7500499,77.1112615,OZONE,26,33,30
India,Delhi,Delhi,"Dr. Karni Singh Shooting Range, Delhi - DPCC","18-03-2026 16:00:00",28.498571,77.264840,PM10,135,227,170
India,Delhi,Delhi,"Dwarka-Sector 8, Delhi - DPCC ","18-03-2026 16:00:00",28.5710274,77.0719006,PM10,133,390,193
India,Chhattisgarh,Milupara,"Govt. Higher Secondary School, Milupara - CECB","18-03-2026 16:00:00",22.1910172,83.5197009,OZONE,41,137,88
India,Chhattisgarh,Raipur,"AIIMS, Raipur - CECB","18-03-2026 16:00:00",21.258815,81.578979,PM2.5,17,35,25
India,Chhattisgarh,Raipur,"AIIMS, Raipur - CECB","18-03-2026 16:00:00",21.258815,81.578979,SO2,2,5,3
India,Chhattisgarh,Raipur,"Bhatagaon New ISBT, Raipur - CECB","18-03-2026 16:00:00",21.219665,81.630094,PM2.5,12,26,17
India,Chhattisgarh,Raipur,"Krishak Nagar, Raipur - CECB","18-03-2026 16:00:00",21.237755,81.705301,PM2.5,20,46,33
India,Chhattisgarh,Raipur,"Krishak Nagar, Raipur - CECB","18-03-2026 16:00:00",21.237755,81.705301,SO2,3,14,5
India,Chhattisgarh,Raipur,"Krishak Nagar, Raipur - CECB","18-03-2026 16:00:00",21.237755,81.705301,CO,15,40,19
India,Chhattisgarh,Raipur,"Siltara Phase-II, Raipur - CECB","18-03-2026 16:00:00",21.371751,81.664929,PM10,21,134,64
India,Chhattisgarh,Tumidih,"OP Jindal Industrial Park, Tumidih - CECB","18-03-2026 16:00:00",22.06631475,83.33820077,PM2.5,23,84,49
India,Chhattisgarh,Tumidih,"OP Jindal Industrial Park, Tumidih - CECB","18-03-2026 16:00:00",22.06631475,83.33820077,SO2,6,30,11
India,Delhi,Delhi,"Alipur, Delhi - DPCC","18-03-2026 16:00:00",28.815329,77.153010,NO2,17,78,39
India,Delhi,Delhi,"Alipur, Delhi - DPCC","18-03-2026 16:00:00",28.815329,77.153010,SO2,6,23,11
India,Delhi,Delhi,"Alipur, Delhi - DPCC","18-03-2026 16:00:00",28.815329,77.153010,CO,22,68,34
India,Delhi,Delhi,"Anand Vihar, Delhi - DPCC","18-03-2026 16:00:00",28.647622,77.3158090,SO2,NA,NA,NA
India,Delhi,Delhi,"Anand Vihar, Delhi - DPCC","18-03-2026 16:00:00",28.647622,77.3158090,OZONE,3,73,46
India,Delhi,Delhi,"Ashok Vihar, Delhi - DPCC","18-03-2026 16:00:00",28.695381,77.181665,PM2.5,73,315,210
India,Delhi,Delhi,"Ashok Vihar, Delhi - DPCC","18-03-2026 16:00:00",28.695381,77.181665,NH3,6,7,7
India,Delhi,Delhi,"Aya Nagar, Delhi - IMD","18-03-2026 16:00:00",28.4706914,77.1099364,PM10,117,283,180
India,Delhi,Delhi,"Bawana, Delhi - DPCC","18-03-2026 16:00:00",28.776200,77.051074,OZONE,3,175,162
India,Delhi,Delhi,"Burari Crossing, Delhi - IMD","18-03-2026 16:00:00",28.7256504,77.2011573,NO2,58,98,81
India,Delhi,Delhi,"CRRI Mathura Road, Delhi - IMD","18-03-2026 16:00:00",28.5512005,77.2735737,PM10,122,209,168
India,Delhi,Delhi,"North Campus, DU, Delhi - IMD","18-03-2026 16:00:00",28.6573814,77.1585447,OZONE,10,311,186
India,Delhi,Delhi,"Okhla Phase-2, Delhi - DPCC","18-03-2026 16:00:00",28.530785,77.271255,PM10,137,238,173
India,Delhi,Delhi,"Okhla Phase-2, Delhi - DPCC","18-03-2026 16:00:00",28.530785,77.271255,NO2,36,114,78
India,Delhi,Delhi,"Patparganj, Delhi - DPCC","18-03-2026 16:00:00",28.623763,77.287209,NH3,7,9,8
India,Delhi,Delhi,"Punjabi Bagh, Delhi - DPCC","18-03-2026 16:00:00",28.674045,77.131023,NO2,20,63,45
India,Delhi,Delhi,"Pusa, Delhi - DPCC","18-03-2026 16:00:00",28.639652,77.146275,NO2,41,129,88
India,Delhi,Delhi,"Pusa, Delhi - DPCC","18-03-2026 16:00:00",28.639652,77.146275,OZONE,3,307,307
India,Delhi,Delhi,"Pusa, Delhi - IMD","18-03-2026 16:00:00",28.636110,77.173332,NO2,60,166,116
India,Delhi,Delhi,"Pusa, Delhi - IMD","18-03-2026 16:00:00",28.636110,77.173332,CO,38,101,92
India,Delhi,Delhi,"R K Puram, Delhi - DPCC","18-03-2026 16:00:00",28.563262,77.186937,CO,35,84,61
India,Delhi,Delhi,"NSIT Dwarka, Delhi - CPCB","18-03-2026 16:00:00",28.60909,77.0325413,PM10,162,304,241
India,Delhi,Delhi,"NSIT Dwarka, Delhi - CPCB","18-03-2026 16:00:00",28.60909,77.0325413,CO,34,74,54
India,Delhi,Delhi,"NSUT Jaffarpur, Delhi - DPCC","18-03-2026 16:00:00","28.594004 ","76.909423 ",OZONE,10,198,198
India,Delhi,Delhi,"Najafgarh, Delhi - DPCC","18-03-2026 16:00:00",28.570173,76.933762,OZONE,4,294,294
India,Delhi,Delhi,"Narela, Delhi - DPCC","18-03-2026 16:00:00",28.822836,77.101981,PM2.5,68,365,215
India,Delhi,Delhi,"Narela, Delhi - DPCC","18-03-2026 16:00:00",28.822836,77.101981,SO2,11,35,20
India,Delhi,Delhi,"Narela, Delhi - DPCC","18-03-2026 16:00:00",28.822836,77.101981,OZONE,8,164,164
India,Delhi,Delhi,"Nehru Nagar, Delhi - DPCC","18-03-2026 16:00:00",28.567890,77.250515,NO2,36,82,56
India,Delhi,Delhi,"North Campus, DU, Delhi - IMD","18-03-2026 16:00:00",28.6573814,77.1585447,CO,41,114,93
India,Delhi,Delhi,"IGI Airport (T3), Delhi - IMD","18-03-2026 16:00:00",28.5627763,77.1180053,CO,28,62,48
India,Delhi,Delhi,"IGNOU_Maidan Garhi, Delhi - DPCC","18-03-2026 16:00:00","28.493624 ","77.201159 ",PM2.5,106,323,240
India,Delhi,Delhi,"IGNOU_Maidan Garhi, Delhi - DPCC","18-03-2026 16:00:00","28.493624 ","77.201159 ",SO2,57,78,64
India,Delhi,Delhi,"IHBAS, Dilshad Garden, Delhi - CPCB","18-03-2026 16:00:00",28.6811736,77.3025234,PM10,153,241,173
India,Delhi,Delhi,"ITO, Delhi - CPCB","18-03-2026 16:00:00",28.628624,77.241060,PM10,83,151,114
India,Delhi,Delhi,"ITO, Delhi - CPCB","18-03-2026 16:00:00",28.628624,77.241060,SO2,25,43,34
India,Delhi,Delhi,"JNU, Delhi - DPCC","18-03-2026 16:00:00","28.540721 ","77.168544 ",PM2.5,72,254,158
India,Delhi,Delhi,"JNU, Delhi - DPCC","18-03-2026 16:00:00","28.540721 ","77.168544 ",CO,108,116,112
India,Chhattisgarh,Bhilai,"Hathkhoj, Bhilai - CECB","18-03-2026 16:00:00",21.224231,81.408350,CO,1,34,11
India,Chhattisgarh,Chhal,"Nawapara SECL Colony, Chhal - CECB","18-03-2026 16:00:00",22.118125,83.140608,PM2.5,13,78,42
India,Chhattisgarh,Chhal,"Nawapara SECL Colony, Chhal - CECB","18-03-2026 16:00:00",22.118125,83.140608,OZONE,81,85,82
India,Chhattisgarh,Korba,"Rampur, Korba - CECB","18-03-2026 16:00:00",22.368195,82.746431,PM10,NA,NA,NA
India,Chhattisgarh,Korba,"Rampur, Korba - CECB","18-03-2026 16:00:00",22.368195,82.746431,SO2,NA,NA,NA
India,Chhattisgarh,Korba,"Urja Nagar, Korba - CECB","18-03-2026 16:00:00",22.348441,82.549611,PM2.5,48,181,99
India,Chhattisgarh,Korba,"Urja Nagar, Korba - CECB","18-03-2026 16:00:00",22.348441,82.549611,SO2,4,19,12
India,Chhattisgarh,Korba,"Urja Nagar, Korba - CECB","18-03-2026 16:00:00",22.348441,82.549611,CO,14,44,26
India,Delhi,Delhi,"Lodhi Road, Delhi - IMD","18-03-2026 16:00:00",28.5918245,77.2273074,CO,38,82,44
India,Delhi,Delhi,"Major Dhyan Chand National Stadium, Delhi - DPCC","18-03-2026 16:00:00",28.611281,77.237738,CO,48,99,65
India,Haryana,Ballabgarh,"Nathu Colony, Ballabgarh - HSPCB","18-03-2026 16:00:00",28.3419248,77.319699,SO2,3,5,4
India,Haryana,Ballabgarh,"Nathu Colony, Ballabgarh - HSPCB","18-03-2026 16:00:00",28.3419248,77.319699,OZONE,6,6,6
India,Haryana,Bhiwani,"H.B. Colony, Bhiwani - HSPCB","18-03-2026 16:00:00",28.806223,76.141105,NH3,8,16,10
India,Haryana,"Charkhi Dadri","Mini Secretariat, Charkhi Dadri - HSPCB","18-03-2026 16:00:00",28.593883,76.270653,CO,10,64,35
India,Haryana,Dharuhera,"Municipal Corporation Office, Dharuhera -  HSPCB","18-03-2026 16:00:00",28.206800,76.799700,PM10,100,313,187
India,Haryana,Dharuhera,"Municipal Corporation Office, Dharuhera -  HSPCB","18-03-2026 16:00:00",28.206800,76.799700,NH3,10,28,20
India,Haryana,Dharuhera,"Municipal Corporation Office, Dharuhera -  HSPCB","18-03-2026 16:00:00",28.206800,76.799700,CO,13,34,23
India,Haryana,Faridabad,"New Industrial Town, Faridabad - HSPCB","18-03-2026 16:00:00",28.39072,77.30059,PM10,130,139,134
India,Haryana,Faridabad,"New Industrial Town, Faridabad - HSPCB","18-03-2026 16:00:00",28.39072,77.30059,CO,10,14,12
India,Haryana,Faridabad,"Sector 11, Faridabad - HSPCB","18-03-2026 16:00:00",28.376058,77.315741,PM2.5,226,349,321
India,Haryana,Gurugram,"Vikas Sadan, Gurugram - HSPCB","18-03-2026 16:00:00",28.4501238,77.0263051,NO2,9,45,26
India,Haryana,Gurugram,"Vikas Sadan, Gurugram - HSPCB","18-03-2026 16:00:00",28.4501238,77.0263051,SO2,2,8,5
India,Haryana,Gurugram,"Vikas Sadan, Gurugram - HSPCB","18-03-2026 16:00:00",28.4501238,77.0263051,OZONE,4,31,24
India,Haryana,Hisar,"Urban Estate-II, Hisar - HSPCB","18-03-2026 16:00:00",29.140560,75.744941,CO,28,44,29
India,Haryana,Jind,"Police Lines, Jind - HSPCB","18-03-2026 16:00:00",29.307814,76.337619,NO2,27,44,35
